t,x,y,z,x_ref,y_ref,z_ref,vx,vy,vz,roll,pitch,yaw,roll_ref,pitch_ref,yaw_ref,acc_x_cmd,acc_y_cmd,acc_z_cmd,thrust_total,tau_x,tau_y,tau_z,f1,f2,f3,f4
0.000000,0.000000000,0.000000000,0.100000000,0.000000000,0.000000000,0.100000000,0.000000000,0.000000000,0.000000000,0.000000000,0.000000000,0.000000000,0.000000000,0.000000000,0.000000000,0.000000000,0.000000000,0.000000000,0.412020000,0.000000000000,0.000000000000,0.000000000000,0.103005000,0.103005000,0.103005000,0.103005000
0.010000,0.000000000,-0.000000000,0.100000000,0.000000000,0.000000000,0.100000000,0.000000000,-0.000000000,0.000000000,0.000000000,0.000000000,0.000000000,-0.000000000,-0.000000000,0.000000000,-0.000000000,0.000000000,0.000000000,0.412020000,0.000000000000,0.000000000000,0.000000000000,0.103005000,0.103005000,0.103005000,0.103005000
0.020000,0.000000000,-0.000000000,0.100000000,0.000000000,0.000000000,0.100000000,0.000000000,-0.000000000,0.000000000,0.000000000,0.000000000,0.000000000,-0.000000000,-0.000000000,0.000000000,-0.000000000,0.000000000,0.000000000,0.412020000,-0.000000000000,0.000000000000,-0.000000000000,0.103005000,0.103005000,0.103005000,0.103005000
0.030000,0.000000000,-0.000000000,0.100000000,0.000000000,0.000000000,0.100000000,0.000000000,-0.000000000,0.000000000,0.000000000,0.000000000,0.000000000,-0.000000000,-0.000000000,0.000000000,-0.000000000,0.000000000,0.000000000,0.412020000,-0.000000000000,0.000000000000,-0.000000000000,0.103005000,0.103005000,0.103005000,0.103005000
0.040000,0.000000000,-0.000000000,0.100000000,0.000000000,0.000000000,0.100000000,0.000000000,-0.000000000,0.000000000,0.000000000,0.000000000,0.000000000,-0.000000000,-0.000000000,0.000000000,-0.000000000,0.000000000,0.000000000,0.412020000,-0.000000000000,0.000000000000,-0.000000000000,0.103005000,0.103005000,0.103005000,0.103005000
0.050000,0.000000000,-0.000000000,0.100000000,0.000000000,0.000000000,0.100000000,0.000000000,-0.000000000,0.000000000,0.000000000,0.000000000,0.000000000,-0.000000000,-0.000000000,0.000000000,-0.000000000,0.000000000,0.000000000,0.412020000,0.000000000000,0.000000000000,-0.000000000000,0.103005000,0.103005000,0.103005000,0.103005000
0.060000,0.000000000,-0.000000000,0.100000000,0.000000000,0.000000000,0.100000000,0.000000000,-0.000000000,0.000000000,0.000000000,0.000000000,0.000000000,-0.000000000,-0.000000000,0.000000000,-0.000000000,0.000000000,0.000000000,0.412020000,0.000000000000,0.000000000000,-0.000000000000,0.103005000,0.103005000,0.103005000,0.103005000
0.070000,0.000000000,-0.000000000,0.100000000,0.000000000,0.000000000,0.100000000,-0.000000000,-0.000000000,0.000000000,0.000000000,0.000000000,0.000000000,-0.000000000,0.000000000,0.000000000,0.000000000,0.000000000,0.000000000,0.412020000,0.000000000000,0.000000000000,-0.000000000000,0.103005000,0.103005000,0.103005000,0.103005000
0.080000,0.000000000,-0.000000000,0.100000000,0.000000000,0.000000000,0.100000000,0.000000000,-0.000000000,0.000000000,0.000000000,0.000000000,0.000000000,-0.000000000,-0.000000000,0.000000000,-0.000000000,0.000000000,0.000000000,0.412020000,-0.000000000000,0.000000000000,-0.000000000000,0.103005000,0.103005000,0.103005000,0.103005000
0.090000,0.000000000,-0.000000000,0.100000000,0.000000000,0.000000000,0.100000000,-0.000000000,-0.000000000,0.000000000,0.000000000,0.000000000,0.000000000,-0.000000000,0.000000000,0.000000000,0.000000000,0.000000000,0.000000000,0.412020000,-0.000000000000,0.000000000000,-0.000000000000,0.103005000,0.103005000,0.103005000,0.103005000
0.100000,-0.000000000,-0.000000000,0.100000000,0.000000000,0.000000000,0.100000000,-0.000000000,-0.000000000,0.000000000,0.000000000,0.000000000,0.000000000,-0.000000000,0.000000000,0.000000000,0.000000000,0.000000000,0.000000000,0.412020000,0.000000000000,0.000000000000,-0.000000000000,0.103005000,0.103005000,0.103005000,0.103005000
0.110000,-0.000000000,-0.000000000,0.100000000,0.000000000,0.000000000,0.100000000,-0.000000000,-0.000000000,0.000000000,0.000000000,0.000000000,0.000000000,-0.000000000,0.000000000,0.000000000,0.000000000,0.000000000,0.000000000,0.412020000,-0.000000000000,0.000000000000,-0.000000000000,0.103005000,0.103005000,0.103005000,0.103005000
0.120000,-0.000000000,-0.000000000,0.100000000,0.000000000,0.000000000,0.100000000,-0.000000000,-0.000000000,0.000000000,0.000000000,0.000000000,0.000000000,-0.000000000,0.000000000,0.000000000,0.000000000,0.000000000,0.000000000,0.412020000,0.000000000000,0.000000000000,-0.000000000000,0.103005000,0.103005000,0.103005000,0.103005000
0.130000,-0.000000000,-0.000000000,0.100000000,0.000000000,0.000000000,0.100000000,0.000000000,-0.000000000,0.000000000,0.000000000,0.000000000,0.000000000,-0.000000000,-0.000000000,0.000000000,-0.000000000,0.000000000,0.000000000,0.412020000,0.000000000000,0.000000000000,-0.000000000000,0.103005000,0.103005000,0.103005000,0.103005000
0.140000,-0.000000000,-0.000000000,0.100000000,0.000000000,0.000000000,0.100000000,0.000000000,-0.000000000,0.000000000,0.000000000,0.000000000,0.000000000,-0.000000000,-0.000000000,0.000000000,-0.000000000,0.000000000,0.000000000,0.412020000,0.000000000000,0.000000000000,-0.000000000000,0.103005000,0.103005000,0.103005000,0.103005000
0.150000,0.000000000,-0.000000000,0.100000000,0.000000000,0.000000000,0.100000000,0.000000000,-0.000000000,0.000000000,0.000000000,0.000000000,0.000000000,-0.000000000,-0.000000000,0.000000000,-0.000000000,0.000000000,0.000000000,0.412020000,0.000000000000,0.000000000000,-0.000000000000,0.103005000,0.103005000,0.103005000,0.103005000
0.160000,0.000000000,-0.000000000,0.100000000,0.000000000,0.000000000,0.100000000,0.000000000,-0.000000000,0.000000000,0.000000000,0.000000000,0.000000000,-0.000000000,-0.000000000,0.000000000,-0.000000000,0.000000000,0.000000000,0.412020000,0.000000000000,0.000000000000,-0.000000000000,0.103005000,0.103005000,0.103005000,0.103005000
0.170000,0.000000000,-0.000000000,0.100000000,0.000000000,0.000000000,0.100000000,0.000000000,-0.000000000,0.000000000,0.000000000,0.000000000,0.000000000,-0.000000000,-0.000000000,0.000000000,-0.000000000,0.000000000,0.000000000,0.412020000,-0.000000000000,0.000000000000,-0.000000000000,0.103005000,0.103005000,0.103005000,0.103005000
0.180000,0.000000000,-0.000000000,0.100000000,0.000000000,0.000000000,0.100000000,0.000000000,-0.000000000,0.000000000,0.000000000,0.000000000,0.000000000,-0.000000000,-0.000000000,0.000000000,-0.000000000,0.000000000,0.000000000,0.412020000,0.000000000000,0.000000000000,-0.000000000000,0.103005000,0.103005000,0.103005000,0.103005000
0.190000,0.000000000,-0.000000000,0.100000000,0.000000000,0.000000000,0.100000000,-0.000000000,-0.000000000,0.000000000,0.000000000,0.000000000,0.000000000,-0.000000000,0.000000000,0.000000000,0.000000000,0.000000000,0.000000000,0.412020000,0.000000000000,0.000000000000,-0.000000000000,0.103005000,0.103005000,0.103005000,0.103005000
0.200000,-0.000000000,-0.000000000,0.100000000,0.000000000,0.000000000,0.100000000,-0.000000000,-0.000000000,0.000000000,0.000000000,0.000000000,0.000000000,-0.000000000,0.000000000,0.000000000,0.000000000,0.000000000,0.000000000,0.412020000,0.000000000000,0.000000000000,-0.000000000000,0.103005000,0.103005000,0.103005000,0.103005000
0.210000,-0.000000000,-0.000000000,0.100000000,0.000000000,0.000000000,0.100000000,0.000000000,-0.000000000,0.000000000,0.000000000,0.000000000,0.000000000,-0.000000000,-0.000000000,0.000000000,-0.000000000,0.000000000,0.000000000,0.412020000,-0.000000000000,0.000000000000,-0.000000000000,0.103005000,0.103005000,0.103005000,0.103005000
0.220000,0.000000000,-0.000000000,0.100000000,0.000000000,0.000000000,0.100000000,0.000000000,-0.000000000,0.000000000,0.000000000,-0.000000000,0.000000000,-0.000000000,-0.000000000,0.000000000,-0.000000000,0.000000000,0.000000000,0.412020000,0.000000000000,0.000000000000,-0.000000000000,0.103005000,0.103005000,0.103005000,0.103005000
0.230000,0.000000000,-0.000000000,0.100000000,0.000000000,0.000000000,0.100000000,0.000000000,-0.000000000,0.000000000,0.000000000,-0.000000000,0.000000000,-0.000000000,-0.000000000,0.000000000,-0.000000000,0.000000000,0.000000000,0.412020000,-0.000000000000,0.000000000000,-0.000000000000,0.103005000,0.103005000,0.103005000,0.103005000
0.240000,0.000000000,-0.000000000,0.100000000,0.000000000,0.000000000,0.100000000,0.000000000,-0.000000000,0.000000000,0.000000000,-0.000000000,0.000000000,-0.000000000,-0.000000000,0.000000000,-0.000000000,0.000000000,0.000000000,0.412020000,-0.000000000000,0.000000000000,-0.000000000000,0.103005000,0.103005000,0.103005000,0.103005000
0.250000,0.000000000,-0.000000000,0.100000000,0.000000000,0.000000000,0.100000000,0.000000000,-0.000000000,0.000000000,0.000000000,-0.000000000,0.000000000,-0.000000000,-0.000000000,0.000000000,-0.000000000,0.000000000,0.000000000,0.412020000,0.000000000000,0.000000000000,-0.000000000000,0.103005000,0.103005000,0.103005000,0.103005000
0.260000,0.000000000,-0.000000000,0.100000000,0.000000000,0.000000000,0.100000000,0.000000000,-0.000000000,0.000000000,0.000000000,-0.000000000,0.000000000,-0.000000000,-0.000000000,0.000000000,-0.000000000,0.000000000,0.000000000,0.412020000,0.000000000000,0.000000000000,-0.000000000000,0.103005000,0.103005000,0.103005000,0.103005000
0.270000,0.000000000,-0.000000000,0.100000000,0.000000000,0.000000000,0.100000000,0.000000000,-0.000000000,0.000000000,0.000000000,-0.000000000,0.000000000,-0.000000000,-0.000000000,0.000000000,-0.000000000,0.000000000,0.000000000,0.412020000,-0.000000000000,0.000000000000,-0.000000000000,0.103005000,0.103005000,0.103005000,0.103005000
0.280000,0.000000000,-0.000000000,0.100000000,0.000000000,0.000000000,0.100000000,0.000000000,-0.000000000,0.000000000,0.000000000,-0.000000000,0.000000000,-0.000000000,-0.000000000,0.000000000,-0.000000000,0.000000000,0.000000000,0.412020000,-0.000000000000,0.000000000000,-0.000000000000,0.103005000,0.103005000,0.103005000,0.103005000
0.290000,0.000000000,-0.000000000,0.100000000,0.000000000,0.000000000,0.100000000,0.000000000,-0.000000000,0.000000000,0.000000000,-0.000000000,0.000000000,-0.000000000,-0.000000000,0.000000000,-0.000000000,0.000000000,0.000000000,0.412020000,0.000000000000,0.000000000000,-0.000000000000,0.103005000,0.103005000,0.103005000,0.103005000
0.300000,0.000000000,-0.000000000,0.100000000,0.000000000,0.000000000,0.100000000,0.000000000,-0.000000000,0.000000000,0.000000000,-0.000000000,0.000000000,-0.000000000,-0.000000000,0.000000000,-0.000000000,0.000000000,0.000000000,0.412020000,0.000000000000,0.000000000000,-0.000000000000,0.103005000,0.103005000,0.103005000,0.103005000
0.310000,0.000000000,-0.000000000,0.100000000,0.000000000,0.000000000,0.100000000,0.000000000,-0.000000000,0.000000000,0.000000000,-0.000000000,0.000000000,-0.000000000,-0.000000000,0.000000000,-0.000000000,0.000000000,0.000000000,0.412020000,0.000000000000,0.000000000000,-0.000000000000,0.103005000,0.103005000,0.103005000,0.103005000
0.320000,0.000000000,-0.000000000,0.100000000,0.000000000,0.000000000,0.100000000,0.000000000,-0.000000000,0.000000000,0.000000000,-0.000000000,0.000000000,-0.000000000,-0.000000000,0.000000000,-0.000000000,0.000000000,0.000000000,0.412020000,0.000000000000,0.000000000000,-0.000000000000,0.103005000,0.103005000,0.103005000,0.103005000
0.330000,0.000000000,-0.000000000,0.100000000,0.000000000,0.000000000,0.100000000,0.000000000,-0.000000000,0.000000000,0.000000000,-0.000000000,0.000000000,-0.000000000,-0.000000000,0.000000000,-0.000000000,0.000000000,0.000000000,0.412020000,0.000000000000,0.000000000000,-0.000000000000,0.103005000,0.103005000,0.103005000,0.103005000
0.340000,0.000000000,-0.000000000,0.100000000,0.000000000,0.000000000,0.100000000,0.000000000,-0.000000000,0.000000000,0.000000000,-0.000000000,0.000000000,-0.000000000,-0.000000000,0.000000000,-0.000000000,0.000000000,0.000000000,0.412020000,0.000000000000,0.000000000000,-0.000000000000,0.103005000,0.103005000,0.103005000,0.103005000
0.350000,0.000000000,-0.000000000,0.100000000,0.000000000,0.000000000,0.100000000,0.000000000,-0.000000000,0.000000000,0.000000000,-0.000000000,0.000000000,-0.000000000,-0.000000000,0.000000000,-0.000000000,0.000000000,0.000000000,0.412020000,0.000000000000,0.000000000000,-0.000000000000,0.103005000,0.103005000,0.103005000,0.103005000
0.360000,0.000000000,-0.000000000,0.100000000,0.000000000,0.000000000,0.100000000,0.000000000,-0.000000000,0.000000000,0.000000000,-0.000000000,0.000000000,-0.000000000,-0.000000000,0.000000000,-0.000000000,0.000000000,0.000000000,0.412020000,-0.000000000000,0.000000000000,-0.000000000000,0.103005000,0.103005000,0.103005000,0.103005000
0.370000,0.000000000,-0.000000000,0.100000000,0.000000000,0.000000000,0.100000000,0.000000000,-0.000000000,0.000000000,0.000000000,-0.000000000,0.000000000,-0.000000000,-0.000000000,0.000000000,-0.000000000,0.000000000,0.000000000,0.412020000,-0.000000000000,0.000000000000,-0.000000000000,0.103005000,0.103005000,0.103005000,0.103005000
0.380000,0.000000000,-0.000000000,0.100000000,0.000000000,0.000000000,0.100000000,0.000000000,-0.000000000,0.000000000,0.000000000,-0.000000000,0.000000000,-0.000000000,-0.000000000,0.000000000,-0.000000000,0.000000000,0.000000000,0.412020000,0.000000000000,0.000000000000,-0.000000000000,0.103005000,0.103005000,0.103005000,0.103005000
0.390000,0.000000000,-0.000000000,0.100000000,0.000000000,0.000000000,0.100000000,0.000000000,-0.000000000,0.000000000,0.000000000,-0.000000000,0.000000000,-0.000000000,-0.000000000,0.000000000,-0.000000000,0.000000000,0.000000000,0.412020000,0.000000000000,0.000000000000,-0.000000000000,0.103005000,0.103005000,0.103005000,0.103005000
0.400000,0.000000000,-0.000000000,0.100000000,0.000000000,0.000000000,0.100000000,0.000000000,-0.000000000,0.000000000,0.000000000,-0.000000000,0.000000000,-0.000000000,-0.000000000,0.000000000,-0.000000000,0.000000000,0.000000000,0.412020000,-0.000000000000,0.000000000000,-0.000000000000,0.103005000,0.103005000,0.103005000,0.103005000
0.410000,0.000000000,-0.000000000,0.100000000,0.000000000,0.000000000,0.100000000,0.000000000,-0.000000000,0.000000000,0.000000000,-0.000000000,0.000000000,-0.000000000,-0.000000000,0.000000000,-0.000000000,0.000000000,0.000000000,0.412020000,-0.000000000000,0.000000000000,-0.000000000000,0.103005000,0.103005000,0.103005000,0.103005000
0.420000,0.000000000,-0.000000000,0.100000000,0.000000000,0.000000000,0.100000000,0.000000000,-0.000000000,0.000000000,0.000000000,-0.000000000,0.000000000,-0.000000000,-0.000000000,0.000000000,-0.000000000,0.000000000,0.000000000,0.412020000,-0.000000000000,0.000000000000,-0.000000000000,0.103005000,0.103005000,0.103005000,0.103005000
0.430000,0.000000000,-0.000000000,0.100000000,0.000000000,0.000000000,0.100000000,0.000000000,-0.000000000,0.000000000,0.000000000,-0.000000000,0.000000000,-0.000000000,-0.000000000,0.000000000,-0.000000000,0.000000000,0.000000000,0.412020000,-0.000000000000,0.000000000000,-0.000000000000,0.103005000,0.103005000,0.103005000,0.103005000
0.440000,0.000000000,-0.000000000,0.100000000,0.000000000,0.000000000,0.100000000,0.000000000,-0.000000000,0.000000000,0.000000000,-0.000000000,0.000000000,-0.000000000,-0.000000000,0.000000000,-0.000000000,0.000000000,0.000000000,0.412020000,-0.000000000000,0.000000000000,-0.000000000000,0.103005000,0.103005000,0.103005000,0.103005000
0.450000,0.000000000,-0.000000000,0.100000000,0.000000000,0.000000000,0.100000000,0.000000000,-0.000000000,0.000000000,0.000000000,-0.000000000,0.000000000,-0.000000000,-0.000000000,0.000000000,-0.000000000,0.000000000,0.000000000,0.412020000,-0.000000000000,0.000000000000,-0.000000000000,0.103005000,0.103005000,0.103005000,0.103005000
0.460000,0.000000000,-0.000000000,0.100000000,0.000000000,0.000000000,0.100000000,0.000000000,-0.000000000,0.000000000,0.000000000,-0.000000000,0.000000000,-0.000000000,-0.000000000,0.000000000,-0.000000000,0.000000000,0.000000000,0.412020000,-0.000000000000,0.000000000000,-0.000000000000,0.103005000,0.103005000,0.103005000,0.103005000
0.470000,0.000000000,-0.000000000,0.100000000,0.000000000,0.000000000,0.100000000,-0.000000000,-0.000000000,0.000000000,0.000000000,-0.000000000,0.000000000,-0.000000000,0.000000000,0.000000000,0.000000000,0.000000000,0.000000000,0.412020000,-0.000000000000,0.000000000000,-0.000000000000,0.103005000,0.103005000,0.103005000,0.103005000
0.480000,0.000000000,-0.000000000,0.100000000,0.000000000,0.000000000,0.100000000,-0.000000000,-0.000000000,0.000000000,0.000000000,-0.000000000,0.000000000,-0.000000000,0.000000000,0.000000000,0.000000000,0.000000000,0.000000000,0.412020000,-0.000000000000,0.000000000000,-0.000000000000,0.103005000,0.103005000,0.103005000,0.103005000
0.490000,0.000000000,-0.000000000,0.100000000,0.000000000,0.000000000,0.100000000,-0.000000000,-0.000000000,0.000000000,0.000000000,-0.000000000,0.000000000,-0.000000000,0.000000000,0.000000000,0.000000000,0.000000000,0.000000000,0.412020000,0.000000000000,0.000000000000,-0.000000000000,0.103005000,0.103005000,0.103005000,0.103005000
0.500000,0.000000000,-0.000000000,0.100000000,0.000000000,0.000000000,0.100000000,-0.000000000,-0.000000000,0.000000000,0.000000000,-0.000000000,0.000000000,-0.000000000,0.000000000,0.000000000,0.000000000,0.000000000,0.000000000,0.412020000,0.000000000000,0.000000000000,-0.000000000000,0.103005000,0.103005000,0.103005000,0.103005000
0.510000,0.000000000,-0.000000000,0.100000000,0.000000000,0.000000000,0.100000000,-0.000000000,-0.000000000,0.000000000,0.000000000,-0.000000000,0.000000000,-0.000000000,0.000000000,0.000000000,0.000000000,0.000000000,0.000000000,0.412020000,0.000000000000,0.000000000000,-0.000000000000,0.103005000,0.103005000,0.103005000,0.103005000
0.520000,-0.000000000,-0.000000000,0.100000000,0.000000000,0.000000000,0.100000000,-0.000000000,-0.000000000,0.000000000,0.000000000,-0.000000000,0.000000000,-0.000000000,0.000000000,0.000000000,0.000000000,0.000000000,0.000000000,0.412020000,0.000000000000,0.000000000000,-0.000000000000,0.103005000,0.103005000,0.103005000,0.103005000
0.530000,-0.000000000,-0.000000000,0.100000000,0.000000000,0.000000000,0.100000000,-0.000000000,-0.000000000,0.000000000,0.000000000,-0.000000000,0.000000000,-0.000000000,0.000000000,0.000000000,0.000000000,0.000000000,0.000000000,0.412020000,0.000000000000,0.000000000000,-0.000000000000,0.103005000,0.103005000,0.103005000,0.103005000
0.540000,-0.000000000,-0.000000000,0.100000000,0.000000000,0.000000000,0.100000000,-0.000000000,-0.000000000,0.000000000,-0.000000000,-0.000000000,0.000000000,-0.000000000,0.000000000,0.000000000,0.000000000,0.000000000,0.000000000,0.412020000,0.000000000000,0.000000000000,-0.000000000000,0.103005000,0.103005000,0.103005000,0.103005000
0.550000,-0.000000000,-0.000000000,0.100000000,0.000000000,0.000000000,0.100000000,-0.000000000,-0.000000000,0.000000000,-0.000000000,-0.000000000,0.000000000,-0.000000000,0.000000000,0.000000000,0.000000000,0.000000000,0.000000000,0.412020000,0.000000000000,0.000000000000,-0.000000000000,0.103005000,0.103005000,0.103005000,0.103005000
0.560000,-0.000000000,-0.000000000,0.100000000,0.000000000,0.000000000,0.100000000,-0.000000000,-0.000000000,0.000000000,-0.000000000,-0.000000000,0.000000000,-0.000000000,0.000000000,0.000000000,0.000000000,0.000000000,0.000000000,0.412020000,0.000000000000,0.000000000000,-0.000000000000,0.103005000,0.103005000,0.103005000,0.103005000
0.570000,-0.000000000,-0.000000000,0.100000000,0.000000000,0.000000000,0.100000000,-0.000000000,-0.000000000,0.000000000,-0.000000000,-0.000000000,0.000000000,-0.000000000,0.000000000,0.000000000,0.000000000,0.000000000,0.000000000,0.412020000,0.000000000000,0.000000000000,-0.000000000000,0.103005000,0.103005000,0.103005000,0.103005000
0.580000,-0.000000000,-0.000000000,0.100000000,0.000000000,0.000000000,0.100000000,-0.000000000,-0.000000000,0.000000000,-0.000000000,-0.000000000,0.000000000,-0.000000000,0.000000000,0.000000000,0.000000000,0.000000000,0.000000000,0.412020000,0.000000000000,0.000000000000,-0.000000000000,0.103005000,0.103005000,0.103005000,0.103005000
0.590000,-0.000000000,-0.000000000,0.100000000,0.000000000,0.000000000,0.100000000,-0.000000000,-0.000000000,0.000000000,-0.000000000,-0.000000000,0.000000000,-0.000000000,0.000000000,0.000000000,0.000000000,0.000000000,0.000000000,0.412020000,0.000000000000,0.000000000000,-0.000000000000,0.103005000,0.103005000,0.103005000,0.103005000
0.600000,-0.000000000,-0.000000000,0.100000000,0.000000000,0.000000000,0.100000000,-0.000000000,-0.000000000,0.000000000,-0.000000000,-0.000000000,0.000000000,-0.000000000,0.000000000,0.000000000,0.000000000,0.000000000,0.000000000,0.412020000,0.000000000000,0.000000000000,-0.000000000000,0.103005000,0.103005000,0.103005000,0.103005000
0.610000,-0.000000000,-0.000000000,0.100000000,0.000000000,0.000000000,0.100000000,-0.000000000,-0.000000000,0.000000000,-0.000000000,-0.000000000,0.000000000,-0.000000000,0.000000000,0.000000000,0.000000000,0.000000000,0.000000000,0.412020000,0.000000000000,0.000000000000,-0.000000000000,0.103005000,0.103005000,0.103005000,0.103005000
0.620000,-0.000000000,-0.000000000,0.100000000,0.000000000,0.000000000,0.100000000,-0.000000000,-0.000000000,0.000000000,-0.000000000,-0.000000000,0.000000000,-0.000000000,0.000000000,0.000000000,0.000000000,0.000000000,0.000000000,0.412020000,0.000000000000,0.000000000000,-0.000000000000,0.103005000,0.103005000,0.103005000,0.103005000
0.630000,-0.000000000,-0.000000000,0.100000000,0.000000000,0.000000000,0.100000000,-0.000000000,-0.000000000,0.000000000,-0.000000000,-0.000000000,0.000000000,-0.000000000,0.000000000,0.000000000,0.000000000,0.000000000,0.000000000,0.412020000,0.000000000000,0.000000000000,-0.000000000000,0.103005000,0.103005000,0.103005000,0.103005000
0.640000,-0.000000000,-0.000000000,0.100000000,0.000000000,0.000000000,0.100000000,-0.000000000,-0.000000000,0.000000000,-0.000000000,-0.000000000,0.000000000,-0.000000000,0.000000000,0.000000000,0.000000000,0.000000000,0.000000000,0.412020000,0.000000000000,0.000000000000,-0.000000000000,0.103005000,0.103005000,0.103005000,0.103005000
0.650000,-0.000000000,-0.000000000,0.100000000,0.000000000,0.000000000,0.100000000,-0.000000000,-0.000000000,0.000000000,-0.000000000,-0.000000000,0.000000000,-0.000000000,0.000000000,0.000000000,0.000000000,0.000000000,0.000000000,0.412020000,0.000000000000,0.000000000000,-0.000000000000,0.103005000,0.103005000,0.103005000,0.103005000
0.660000,-0.000000000,-0.000000000,0.100000000,0.000000000,0.000000000,0.100000000,-0.000000000,-0.000000000,0.000000000,-0.000000000,-0.000000000,0.000000000,-0.000000000,0.000000000,0.000000000,0.000000000,0.000000000,0.000000000,0.412020000,0.000000000000,0.000000000000,-0.000000000000,0.103005000,0.103005000,0.103005000,0.103005000
0.670000,-0.000000000,-0.000000000,0.100000000,0.000000000,0.000000000,0.100000000,-0.000000000,-0.000000000,0.000000000,-0.000000000,-0.000000000,0.000000000,-0.000000000,0.000000000,0.000000000,0.000000000,0.000000000,0.000000000,0.412020000,0.000000000000,0.000000000000,-0.000000000000,0.103005000,0.103005000,0.103005000,0.103005000
0.680000,-0.000000000,-0.000000000,0.100000000,0.000000000,0.000000000,0.100000000,-0.000000000,-0.000000000,0.000000000,-0.000000000,-0.000000000,0.000000000,-0.000000000,0.000000000,0.000000000,0.000000000,0.000000000,0.000000000,0.412020000,0.000000000000,0.000000000000,-0.000000000000,0.103005000,0.103005000,0.103005000,0.103005000
0.690000,-0.000000000,-0.000000000,0.100000000,0.000000000,0.000000000,0.100000000,-0.000000000,-0.000000000,0.000000000,-0.000000000,-0.000000000,0.000000000,-0.000000000,0.000000000,0.000000000,0.000000000,0.000000000,0.000000000,0.412020000,0.000000000000,0.000000000000,-0.000000000000,0.103005000,0.103005000,0.103005000,0.103005000
0.700000,-0.000000000,-0.000000000,0.100000000,0.000000000,0.000000000,0.100000000,-0.000000000,-0.000000000,0.000000000,-0.000000000,-0.000000000,0.000000000,-0.000000000,0.000000000,0.000000000,0.000000000,0.000000000,0.000000000,0.412020000,0.000000000000,0.000000000000,-0.000000000000,0.103005000,0.103005000,0.103005000,0.103005000
0.710000,-0.000000000,-0.000000000,0.100000000,0.000000000,0.000000000,0.100000000,-0.000000000,-0.000000000,0.000000000,-0.000000000,-0.000000000,0.000000000,-0.000000000,0.000000000,0.000000000,0.000000000,0.000000000,0.000000000,0.412020000,0.000000000000,0.000000000000,-0.000000000000,0.103005000,0.103005000,0.103005000,0.103005000
0.720000,-0.000000000,-0.000000000,0.100000000,0.000000000,0.000000000,0.100000000,-0.000000000,-0.000000000,0.000000000,-0.000000000,-0.000000000,0.000000000,-0.000000000,0.000000000,0.000000000,0.000000000,0.000000000,0.000000000,0.412020000,0.000000000000,0.000000000000,-0.000000000000,0.103005000,0.103005000,0.103005000,0.103005000
0.730000,-0.000000000,-0.000000000,0.100000000,0.000000000,0.000000000,0.100000000,-0.000000000,-0.000000000,0.000000000,-0.000000000,-0.000000000,0.000000000,-0.000000000,0.000000000,0.000000000,0.000000000,0.000000000,0.000000000,0.412020000,0.000000000000,0.000000000000,-0.000000000000,0.103005000,0.103005000,0.103005000,0.103005000
0.740000,-0.000000000,-0.000000000,0.100000000,0.000000000,0.000000000,0.100000000,-0.000000000,-0.000000000,0.000000000,-0.000000000,-0.000000000,0.000000000,-0.000000000,0.000000000,0.000000000,0.000000000,0.000000000,0.000000000,0.412020000,0.000000000000,0.000000000000,-0.000000000000,0.103005000,0.103005000,0.103005000,0.103005000
0.750000,-0.000000000,-0.000000000,0.100000000,0.000000000,0.000000000,0.100000000,-0.000000000,-0.000000000,0.000000000,-0.000000000,-0.000000000,0.000000000,-0.000000000,0.000000000,0.000000000,0.000000000,0.000000000,0.000000000,0.412020000,0.000000000000,0.000000000000,-0.000000000000,0.103005000,0.103005000,0.103005000,0.103005000
0.760000,-0.000000000,-0.000000000,0.100000000,0.000000000,0.000000000,0.100000000,-0.000000000,-0.000000000,0.000000000,-0.000000000,0.000000000,0.000000000,-0.000000000,0.000000000,0.000000000,0.000000000,0.000000000,0.000000000,0.412020000,0.000000000000,0.000000000000,-0.000000000000,0.103005000,0.103005000,0.103005000,0.103005000
0.770000,-0.000000000,-0.000000000,0.100000000,0.000000000,0.000000000,0.100000000,-0.000000000,0.000000000,0.000000000,-0.000000000,0.000000000,0.000000000,-0.000000000,0.000000000,0.000000000,0.000000000,0.000000000,0.000000000,0.412020000,0.000000000000,0.000000000000,-0.000000000000,0.103005000,0.103005000,0.103005000,0.103005000
0.780000,-0.000000000,-0.000000000,0.100000000,0.000000000,0.000000000,0.100000000,-0.000000000,0.000000000,0.000000000,-0.000000000,0.000000000,0.000000000,0.000000000,0.000000000,0.000000000,0.000000000,-0.000000000,0.000000000,0.412020000,0.000000000000,0.000000000000,-0.000000000000,0.103005000,0.103005000,0.103005000,0.103005000
0.790000,-0.000000000,-0.000000000,0.100000000,0.000000000,0.000000000,0.100000000,-0.000000000,0.000000000,0.000000000,-0.000000000,0.000000000,0.000000000,0.000000000,0.000000000,0.000000000,0.000000000,-0.000000000,0.000000000,0.412020000,0.000000000000,0.000000000000,-0.000000000000,0.103005000,0.103005000,0.103005000,0.103005000
0.800000,-0.000000000,-0.000000000,0.100000000,0.000000000,0.000000000,0.100000000,-0.000000000,0.000000000,0.000000000,-0.000000000,0.000000000,0.000000000,0.000000000,0.000000000,0.000000000,0.000000000,-0.000000000,0.000000000,0.412020000,0.000000000000,0.000000000000,-0.000000000000,0.103005000,0.103005000,0.103005000,0.103005000
0.810000,-0.000000000,-0.000000000,0.100000000,0.000000000,0.000000000,0.100000000,-0.000000000,0.000000000,0.000000000,-0.000000000,0.000000000,0.000000000,0.000000000,0.000000000,0.000000000,0.000000000,-0.000000000,0.000000000,0.412020000,0.000000000000,0.000000000000,-0.000000000000,0.103005000,0.103005000,0.103005000,0.103005000
0.820000,-0.000000000,-0.000000000,0.100000000,0.000000000,0.000000000,0.100000000,-0.000000000,0.000000000,0.000000000,-0.000000000,0.000000000,0.000000000,0.000000000,0.000000000,0.000000000,0.000000000,-0.000000000,0.000000000,0.412020000,0.000000000000,0.000000000000,-0.000000000000,0.103005000,0.103005000,0.103005000,0.103005000
0.830000,-0.000000000,-0.000000000,0.100000000,0.000000000,0.000000000,0.100000000,-0.000000000,0.000000000,0.000000000,-0.000000000,0.000000000,0.000000000,0.000000000,0.000000000,0.000000000,0.000000000,-0.000000000,0.000000000,0.412020000,0.000000000000,0.000000000000,-0.000000000000,0.103005000,0.103005000,0.103005000,0.103005000
0.840000,-0.000000000,-0.000000000,0.100000000,0.000000000,0.000000000,0.100000000,-0.000000000,0.000000000,0.000000000,-0.000000000,0.000000000,0.000000000,0.000000000,0.000000000,0.000000000,0.000000000,-0.000000000,0.000000000,0.412020000,0.000000000000,0.000000000000,-0.000000000000,0.103005000,0.103005000,0.103005000,0.103005000
0.850000,-0.000000000,-0.000000000,0.100000000,0.000000000,0.000000000,0.100000000,-0.000000000,0.000000000,0.000000000,-0.000000000,0.000000000,0.000000000,0.000000000,0.000000000,0.000000000,0.000000000,-0.000000000,0.000000000,0.412020000,0.000000000000,0.000000000000,-0.000000000000,0.103005000,0.103005000,0.103005000,0.103005000
0.860000,-0.000000000,-0.000000000,0.100000000,0.000000000,0.000000000,0.100000000,-0.000000000,0.000000000,0.000000000,-0.000000000,0.000000000,0.000000000,0.000000000,0.000000000,0.000000000,0.000000000,-0.000000000,0.000000000,0.412020000,0.000000000000,0.000000000000,-0.000000000000,0.103005000,0.103005000,0.103005000,0.103005000
0.870000,-0.000000000,-0.000000000,0.100000000,0.000000000,0.000000000,0.100000000,-0.000000000,0.000000000,0.000000000,-0.000000000,0.000000000,0.000000000,0.000000000,0.000000000,0.000000000,0.000000000,-0.000000000,0.000000000,0.412020000,0.000000000000,0.000000000000,-0.000000000000,0.103005000,0.103005000,0.103005000,0.103005000
0.880000,-0.000000000,-0.000000000,0.100000000,0.000000000,0.000000000,0.100000000,-0.000000000,0.000000000,0.000000000,-0.000000000,0.000000000,0.000000000,0.000000000,0.000000000,0.000000000,0.000000000,-0.000000000,0.000000000,0.412020000,0.000000000000,0.000000000000,-0.000000000000,0.103005000,0.103005000,0.103005000,0.103005000
0.890000,-0.000000000,-0.000000000,0.100000000,0.000000000,0.000000000,0.100000000,-0.000000000,0.000000000,0.000000000,-0.000000000,0.000000000,0.000000000,0.000000000,0.000000000,0.000000000,0.000000000,-0.000000000,0.000000000,0.412020000,0.000000000000,0.000000000000,-0.000000000000,0.103005000,0.103005000,0.103005000,0.103005000
0.900000,-0.000000000,-0.000000000,0.100000000,0.000000000,0.000000000,0.100000000,-0.000000000,0.000000000,0.000000000,-0.000000000,0.000000000,0.000000000,0.000000000,0.000000000,0.000000000,0.000000000,-0.000000000,0.000000000,0.412020000,0.000000000000,0.000000000000,-0.000000000000,0.103005000,0.103005000,0.103005000,0.103005000
0.910000,-0.000000000,-0.000000000,0.100000000,0.000000000,0.000000000,0.100000000,-0.000000000,0.000000000,0.000000000,-0.000000000,0.000000000,0.000000000,0.000000000,0.000000000,0.000000000,0.000000000,-0.000000000,0.000000000,0.412020000,0.000000000000,0.000000000000,-0.000000000000,0.103005000,0.103005000,0.103005000,0.103005000
0.920000,-0.000000000,-0.000000000,0.100000000,0.000000000,0.000000000,0.100000000,-0.000000000,0.000000000,0.000000000,-0.000000000,0.000000000,0.000000000,0.000000000,0.000000000,0.000000000,0.000000000,-0.000000000,0.000000000,0.412020000,0.000000000000,0.000000000000,-0.000000000000,0.103005000,0.103005000,0.103005000,0.103005000
0.930000,-0.000000000,-0.000000000,0.100000000,0.000000000,0.000000000,0.100000000,-0.000000000,0.000000000,0.000000000,-0.000000000,0.000000000,0.000000000,0.000000000,0.000000000,0.000000000,0.000000000,-0.000000000,0.000000000,0.412020000,0.000000000000,0.000000000000,-0.000000000000,0.103005000,0.103005000,0.103005000,0.103005000
0.940000,-0.000000000,-0.000000000,0.100000000,0.000000000,0.000000000,0.100000000,-0.000000000,0.000000000,0.000000000,-0.000000000,0.000000000,0.000000000,0.000000000,0.000000000,0.000000000,0.000000000,-0.000000000,0.000000000,0.412020000,0.000000000000,0.000000000000,-0.000000000000,0.103005000,0.103005000,0.103005000,0.103005000
0.950000,-0.000000000,-0.000000000,0.100000000,0.000000000,0.000000000,0.100000000,-0.000000000,0.000000000,0.000000000,-0.000000000,0.000000000,0.000000000,0.000000000,0.000000000,0.000000000,0.000000000,-0.000000000,0.000000000,0.412020000,0.000000000000,0.000000000000,-0.000000000000,0.103005000,0.103005000,0.103005000,0.103005000
0.960000,-0.000000000,-0.000000000,0.100000000,0.000000000,0.000000000,0.100000000,-0.000000000,0.000000000,0.000000000,-0.000000000,0.000000000,0.000000000,0.000000000,0.000000000,0.000000000,0.000000000,-0.000000000,0.000000000,0.412020000,0.000000000000,0.000000000000,-0.000000000000,0.103005000,0.103005000,0.103005000,0.103005000
0.970000,-0.000000000,-0.000000000,0.100000000,0.000000000,0.000000000,0.100000000,-0.000000000,0.000000000,0.000000000,-0.000000000,0.000000000,0.000000000,0.000000000,0.000000000,0.000000000,0.000000000,-0.000000000,0.000000000,0.412020000,0.000000000000,0.000000000000,-0.000000000000,0.103005000,0.103005000,0.103005000,0.103005000
0.980000,-0.000000000,-0.000000000,0.100000000,0.000000000,0.000000000,0.100000000,-0.000000000,0.000000000,0.000000000,-0.000000000,0.000000000,0.000000000,0.000000000,0.000000000,0.000000000,0.000000000,-0.000000000,0.000000000,0.412020000,0.000000000000,0.000000000000,-0.000000000000,0.103005000,0.103005000,0.103005000,0.103005000
0.990000,-0.000000000,-0.000000000,0.100000000,0.000000000,0.000000000,0.100000000,-0.000000000,0.000000000,0.000000000,-0.000000000,0.000000000,0.000000000,0.000000000,0.000000000,0.000000000,0.000000000,-0.000000000,0.000000000,0.412020000,0.000000000000,0.000000000000,-0.000000000000,0.103005000,0.103005000,0.103005000,0.103005000
1.000000,-0.000000000,-0.000000000,0.100000000,0.000000000,0.000000000,0.100000000,-0.000000000,0.000000000,0.000000000,-0.000000000,0.000000000,0.000000000,0.000000000,0.000000000,0.000000000,0.000000000,-0.000000000,0.000000000,0.412020000,0.000000000000,0.000000000000,-0.000000000000,0.103005000,0.103005000,0.103005000,0.103005000
1.010000,-0.000000000,-0.000000000,0.100000000,0.000000000,0.000000000,0.100005616,-0.000000000,0.000000000,0.000000000,-0.000000000,0.000000000,0.000000000,0.000000000,0.000000000,0.000000000,0.000000000,-0.000000000,0.004514020,0.412209589,0.000000000000,0.000000000000,-0.000000000000,0.103052397,0.103052397,0.103052397,0.103052397
1.020000,-0.000000000,-0.000000000,0.100000226,0.000000000,0.000000000,0.100022425,-0.000000000,0.000000000,0.000045140,-0.000000000,0.000000000,0.000000000,0.000000000,0.000000000,0.000000000,0.000000000,-0.000000000,0.008874337,0.412392722,0.000000000000,0.000000000000,-0.000000000000,0.103098181,0.103098181,0.103098181,0.103098181
1.030000,-0.000000000,-0.000000000,0.100001121,0.000000000,0.000000000,0.100050372,-0.000000000,0.000000000,0.000133883,-0.000000000,0.000000000,0.000000000,0.000000000,0.000000000,0.000000000,0.000000000,-0.000000000,0.013084848,0.412569564,0.000000000000,0.000000000000,-0.000000000000,0.103142391,0.103142391,0.103142391,0.103142391
1.040000,-0.000000000,-0.000000000,0.100003114,0.000000000,0.000000000,0.100089400,-0.000000000,0.000000000,0.000264730,-0.000000000,0.000000000,0.000000000,0.000000000,0.000000000,0.000000000,0.000000000,-0.000000000,0.017149367,0.412740273,0.000000000000,0.000000000000,-0.000000000000,0.103185068,0.103185068,0.103185068,0.103185068
1.050000,-0.000000000,-0.000000000,0.100006619,0.000000000,0.000000000,0.100139453,-0.000000000,0.000000000,0.000436222,-0.000000000,-0.000000000,0.000000000,0.000000000,0.000000000,0.000000000,0.000000000,-0.000000000,0.021071619,0.412905008,0.000000000000,0.000000000000,-0.000000000000,0.103226252,0.103226252,0.103226252,0.103226252
1.060000,-0.000000000,0.000000000,0.100012034,0.000000000,0.000000000,0.100200475,-0.000000000,0.000000000,0.000646934,-0.000000000,-0.000000000,0.000000000,0.000000000,0.000000000,0.000000000,0.000000000,-0.000000000,0.024855246,0.413063920,0.000000000000,0.000000000000,-0.000000000000,0.103265980,0.103265980,0.103265980,0.103265980
1.070000,-0.000000000,0.000000000,0.100019746,0.000000000,0.000000000,0.100272409,-0.000000000,0.000000000,0.000895481,-0.000000000,-0.000000000,0.000000000,0.000000000,0.000000000,0.000000000,0.000000000,-0.000000000,0.028503810,0.413217160,0.000000000000,0.000000000000,-0.000000000000,0.103304290,0.103304290,0.103304290,0.103304290
1.080000,-0.000000000,0.000000000,0.100030126,0.000000000,0.000000000,0.100355200,-0.000000000,0.000000000,0.001180510,0.000000000,-0.000000000,0.000000000,0.000000000,0.000000000,0.000000000,0.000000000,-0.000000000,0.032020790,0.413364873,0.000000000000,-0.000000000000,-0.000000000000,0.103341218,0.103341218,0.103341218,0.103341218
1.090000,-0.000000000,0.000000000,0.100043533,0.000000000,0.000000000,0.100448791,-0.000000000,0.000000000,0.001500706,0.000000000,-0.000000000,0.000000000,0.000000000,0.000000000,0.000000000,0.000000000,-0.000000000,0.035409588,0.413507203,0.000000000000,-0.000000000000,-0.000000000000,0.103376801,0.103376801,0.103376801,0.103376801
1.100000,-0.000000000,0.000000000,0.100060310,0.000000000,0.000000000,0.100553125,-0.000000000,0.000000000,0.001854785,0.000000000,-0.000000000,0.000000000,0.000000000,0.000000000,0.000000000,0.000000000,-0.000000000,0.038673528,0.413644288,0.000000000000,-0.000000000000,-0.000000000000,0.103411072,0.103411072,0.103411072,0.103411072
1.110000,-0.000000000,0.000000000,0.100080791,0.000000000,0.000000000,0.100668147,-0.000000000,0.000000000,0.002241497,0.000000000,-0.000000000,0.000000000,0.000000000,0.000000000,0.000000000,0.000000000,-0.000000000,0.041815860,0.413776266,-0.000000000000,-0.000000000000,-0.000000000000,0.103444067,0.103444067,0.103444067,0.103444067
1.120000,-0.000000000,0.000000000,0.100105297,0.000000000,0.000000000,0.100793800,-0.000000000,0.000000000,0.002659626,0.000000000,-0.000000000,0.000000000,0.000000000,0.000000000,0.000000000,0.000000000,-0.000000000,0.044839759,0.413903270,-0.000000000000,-0.000000000000,-0.000000000000,0.103475817,0.103475817,0.103475817,0.103475817
1.130000,-0.000000000,0.000000000,0.100134135,0.000000000,0.000000000,0.100930028,-0.000000000,0.000000000,0.003107985,0.000000000,-0.000000000,0.000000000,0.000000000,0.000000000,0.000000000,0.000000000,-0.000000000,0.047748329,0.414025430,-0.000000000000,-0.000000000000,-0.000000000000,0.103506357,0.103506357,0.103506357,0.103506357
1.140000,-0.000000000,0.000000000,0.100167602,0.000000000,0.000000000,0.101076775,-0.000000000,0.000000000,0.003585419,0.000000000,-0.000000000,0.000000000,0.000000000,0.000000000,0.000000000,0.000000000,-0.000000000,0.050544601,0.414142873,-0.000000000000,-0.000000000000,-0.000000000000,0.103535718,0.103535718,0.103535718,0.103535718
1.150000,-0.000000000,0.000000000,0.100205983,0.000000000,0.000000000,0.101233984,-0.000000000,0.000000000,0.004090804,0.000000000,-0.000000000,0.000000000,0.000000000,0.000000000,0.000000000,0.000000000,-0.000000000,0.053231541,0.414255725,-0.000000000000,0.000000000000,-0.000000000000,0.103563931,0.103563931,0.103563931,0.103563931
1.160000,-0.000000000,0.000000000,0.100249552,0.000000000,0.000000000,0.101401600,-0.000000000,0.000000000,0.004623043,0.000000000,-0.000000000,0.000000000,0.000000000,0.000000000,0.000000000,0.000000000,-0.000000000,0.055812042,0.414364106,-0.000000000000,0.000000000000,-0.000000000000,0.103591026,0.103591026,0.103591026,0.103591026
1.170000,-0.000000000,0.000000000,0.100298573,0.000000000,0.000000000,0.101579566,-0.000000000,0.000000000,0.005181070,0.000000000,-0.000000000,0.000000000,0.000000000,0.000000000,0.000000000,0.000000000,-0.000000000,0.058288935,0.414468135,-0.000000000000,0.000000000000,-0.000000000000,0.103617034,0.103617034,0.103617034,0.103617034
1.180000,-0.000000000,0.000000000,0.100353298,0.000000000,0.000000000,0.101767825,-0.000000000,0.000000000,0.005763847,0.000000000,-0.000000000,0.000000000,0.000000000,0.000000000,0.000000000,0.000000000,-0.000000000,0.060664983,0.414567929,-0.000000000000,0.000000000000,-0.000000000000,0.103641982,0.103641982,0.103641982,0.103641982
1.190000,-0.000000000,0.000000000,0.100413969,0.000000000,0.000000000,0.101966322,-0.000000000,0.000000000,0.006370363,0.000000000,-0.000000000,0.000000000,0.000000000,0.000000000,0.000000000,0.000000000,-0.000000000,0.062942888,0.414663601,-0.000000000000,-0.000000000000,-0.000000000000,0.103665900,0.103665900,0.103665900,0.103665900
1.200000,-0.000000000,0.000000000,0.100480819,0.000000000,0.000000000,0.102175000,-0.000000000,0.000000000,0.006999632,0.000000000,-0.000000000,0.000000000,0.000000000,0.000000000,0.000000000,0.000000000,-0.000000000,0.065125288,0.414755262,-0.000000000000,-0.000000000000,-0.000000000000,0.103688816,0.103688816,0.103688816,0.103688816
1.210000,-0.000000000,0.000000000,0.100554070,0.000000000,0.000000000,0.102393803,-0.000000000,0.000000000,0.007650697,0.000000000,-0.000000000,0.000000000,0.000000000,0.000000000,0.000000000,0.000000000,-0.000000000,0.067214759,0.414843020,-0.000000000000,-0.000000000000,-0.000000000000,0.103710755,0.103710755,0.103710755,0.103710755
1.220000,-0.000000000,0.000000000,0.100633937,0.000000000,0.000000000,0.102622675,-0.000000000,0.000000000,0.008322625,0.000000000,-0.000000000,0.000000000,0.000000000,0.000000000,0.000000000,0.000000000,-0.000000000,0.069213820,0.414926980,-0.000000000000,-0.000000000000,-0.000000000000,0.103731745,0.103731745,0.103731745,0.103731745
1.230000,-0.000000000,0.000000000,0.100720623,0.000000000,0.000000000,0.102861559,-0.000000000,0.000000000,0.009014509,0.000000000,-0.000000000,0.000000000,0.000000000,0.000000000,0.000000000,0.000000000,-0.000000000,0.071124929,0.415007247,-0.000000000000,-0.000000000000,-0.000000000000,0.103751812,0.103751812,0.103751812,0.103751812
1.240000,-0.000000000,0.000000000,0.100814323,0.000000000,0.000000000,0.103110400,-0.000000000,0.000000000,0.009725465,0.000000000,-0.000000000,0.000000000,0.000000000,0.000000000,0.000000000,0.000000000,-0.000000000,0.072950487,0.415083920,-0.000000000000,-0.000000000000,-0.000000000000,0.103770980,0.103770980,0.103770980,0.103770980
1.250000,-0.000000000,0.000000000,0.100915223,0.000000000,0.000000000,0.103369141,-0.000000000,0.000000000,0.010454634,0.000000000,-0.000000000,0.000000000,0.000000000,0.000000000,0.000000000,0.000000000,-0.000000000,0.074692841,0.415157099,-0.000000000000,-0.000000000000,-0.000000000000,0.103789275,0.103789275,0.103789275,0.103789275
1.260000,-0.000000000,0.000000000,0.101023502,0.000000000,0.000000000,0.103637725,-0.000000000,0.000000000,0.011201181,0.000000000,-0.000000000,0.000000000,0.000000000,0.000000000,0.000000000,0.000000000,-0.000000000,0.076354280,0.415226880,-0.000000000000,-0.000000000000,-0.000000000000,0.103806720,0.103806720,0.103806720,0.103806720
1.270000,-0.000000000,0.000000000,0.101139330,0.000000000,0.000000000,0.103916097,-0.000000000,0.000000000,0.011964290,0.000000000,-0.000000000,0.000000000,0.000000000,0.000000000,0.000000000,0.000000000,-0.000000000,0.077937040,0.415293356,-0.000000000000,-0.000000000000,-0.000000000000,0.103823339,0.103823339,0.103823339,0.103823339
1.280000,-0.000000000,0.000000000,0.101262867,0.000000000,0.000000000,0.104204200,-0.000000000,0.000000000,0.012743173,0.000000000,-0.000000000,0.000000000,0.000000000,0.000000000,0.000000000,0.000000000,-0.000000000,0.079443307,0.415356619,-0.000000000000,-0.000000000000,-0.000000000000,0.103839155,0.103839155,0.103839155,0.103839155
1.290000,-0.000000000,0.000000000,0.101394268,0.000000000,0.000000000,0.104501978,-0.000000000,0.000000000,0.013537058,0.000000000,-0.000000000,0.000000000,0.000000000,0.000000000,0.000000000,0.000000000,-0.000000000,0.080875211,0.415416759,-0.000000000000,-0.000000000000,-0.000000000000,0.103854190,0.103854190,0.103854190,0.103854190
1.300000,-0.000000000,0.000000000,0.101533680,0.000000000,0.000000000,0.104809375,-0.000000000,-0.000000000,0.014345199,0.000000000,-0.000000000,0.000000000,0.000000000,0.000000000,0.000000000,0.000000000,-0.000000000,0.082234835,0.415473863,-0.000000000000,-0.000000000000,-0.000000000000,0.103868466,0.103868466,0.103868466,0.103868466
1.310000,-0.000000000,0.000000000,0.101681240,0.000000000,0.000000000,0.105126334,-0.000000000,-0.000000000,0.015166866,0.000000000,-0.000000000,0.000000000,-0.000000000,0.000000000,0.000000000,0.000000000,0.000000000,0.083524209,0.415528017,-0.000000000000,-0.000000000000,-0.000000000000,0.103882004,0.103882004,0.103882004,0.103882004
1.320000,-0.000000000,0.000000000,0.101837081,0.000000000,0.000000000,0.105452800,-0.000000000,-0.000000000,0.016001354,0.000000000,-0.000000000,0.000000000,-0.000000000,0.000000000,0.000000000,0.000000000,0.000000000,0.084745319,0.415579303,-0.000000000000,-0.000000000000,-0.000000000000,0.103894826,0.103894826,0.103894826,0.103894826
1.330000,-0.000000000,0.000000000,0.102001328,0.000000000,0.000000000,0.105788716,-0.000000000,-0.000000000,0.016847974,0.000000000,-0.000000000,0.000000000,-0.000000000,0.000000000,0.000000000,0.000000000,0.000000000,0.085900099,0.415627804,-0.000000000000,-0.000000000000,-0.000000000000,0.103906951,0.103906951,0.103906951,0.103906951
1.340000,-0.000000000,0.000000000,0.102174098,0.000000000,0.000000000,0.106134025,-0.000000000,-0.000000000,0.017706058,0.000000000,-0.000000000,0.000000000,-0.000000000,0.000000000,0.000000000,0.000000000,0.000000000,0.086990440,0.415673598,-0.000000000000,-0.000000000000,-0.000000000000,0.103918400,0.103918400,0.103918400,0.103918400
1.350000,-0.000000000,0.000000000,0.102355503,0.000000000,0.000000000,0.106488672,-0.000000000,-0.000000000,0.018574956,0.000000000,-0.000000000,0.000000000,-0.000000000,0.000000000,0.000000000,0.000000000,0.000000000,0.088018184,0.415716764,-0.000000000000,-0.000000000000,-0.000000000000,0.103929191,0.103929191,0.103929191,0.103929191
1.360000,-0.000000000,0.000000000,0.102545648,0.000000000,0.000000000,0.106852600,-0.000000000,-0.000000000,0.019454038,0.000000000,-0.000000000,0.000000000,-0.000000000,0.000000000,0.000000000,0.000000000,0.000000000,0.088985132,0.415757376,-0.000000000000,-0.000000000000,-0.000000000000,0.103939344,0.103939344,0.103939344,0.103939344
1.370000,-0.000000000,0.000000000,0.102744632,0.000000000,0.000000000,0.107225753,-0.000000000,-0.000000000,0.020342689,0.000000000,0.000000000,0.000000000,-0.000000000,0.000000000,0.000000000,0.000000000,0.000000000,0.089893039,0.415795508,-0.000000000000,-0.000000000000,-0.000000000000,0.103948877,0.103948877,0.103948877,0.103948877
1.380000,-0.000000000,0.000000000,0.102952547,0.000000000,0.000000000,0.107608075,-0.000000000,-0.000000000,0.021240314,0.000000000,0.000000000,0.000000000,-0.000000000,0.000000000,0.000000000,0.000000000,0.000000000,0.090743618,0.415831232,-0.000000000000,-0.000000000000,-0.000000000000,0.103957808,0.103957808,0.103957808,0.103957808
1.390000,-0.000000000,0.000000000,0.103169480,0.000000000,0.000000000,0.107999509,-0.000000000,-0.000000000,0.022146335,0.000000000,0.000000000,0.000000000,-0.000000000,0.000000000,0.000000000,0.000000000,0.000000000,0.091538540,0.415864619,-0.000000000000,-0.000000000000,-0.000000000000,0.103966155,0.103966155,0.103966155,0.103966155
1.400000,-0.000000000,0.000000000,0.103395513,0.000000000,0.000000000,0.108400000,-0.000000000,-0.000000000,0.023060189,0.000000000,0.000000000,0.000000000,-0.000000000,0.000000000,0.000000000,0.000000000,0.000000000,0.092279436,0.415895736,-0.000000000000,-0.000000000000,-0.000000000000,0.103973934,0.103973934,0.103973934,0.103973934
1.410000,-0.000000000,0.000000000,0.103630721,0.000000000,0.000000000,0.108809491,-0.000000000,-0.000000000,0.023981330,0.000000000,0.000000000,0.000000000,-0.000000000,0.000000000,0.000000000,0.000000000,0.000000000,0.092967895,0.415924652,-0.000000000000,-0.000000000000,-0.000000000000,0.103981163,0.103981163,0.103981163,0.103981163
1.420000,-0.000000000,0.000000000,0.103875174,0.000000000,0.000000000,0.109227925,-0.000000000,-0.000000000,0.024909228,0.000000000,0.000000000,0.000000000,-0.000000000,0.000000000,0.000000000,0.000000000,0.000000000,0.093605469,0.415951430,-0.000000000000,-0.000000000000,-0.000000000000,0.103987857,0.103987857,0.103987857,0.103987857
1.430000,-0.000000000,0.000000000,0.104128937,0.000000000,0.000000000,0.109655247,-0.000000000,-0.000000000,0.025843369,0.000000000,0.000000000,0.000000000,-0.000000000,0.000000000,0.000000000,0.000000000,0.000000000,0.094193669,0.415976134,-0.000000000000,-0.000000000000,-0.000000000000,0.103994034,0.103994034,0.103994034,0.103994034
1.440000,-0.000000000,0.000000000,0.104392070,0.000000000,0.000000000,0.110091400,-0.000000000,-0.000000000,0.026783254,0.000000000,0.000000000,0.000000000,-0.000000000,0.000000000,0.000000000,0.000000000,0.000000000,0.094733970,0.415998827,-0.000000000000,-0.000000000000,-0.000000000000,0.103999707,0.103999707,0.103999707,0.103999707
1.450000,-0.000000000,0.000000000,0.104664628,0.000000000,0.000000000,0.110536328,-0.000000000,-0.000000000,0.027728397,0.000000000,0.000000000,0.000000000,-0.000000000,0.000000000,0.000000000,0.000000000,0.000000000,0.095227812,0.416019568,-0.000000000000,-0.000000000000,-0.000000000000,0.104004892,0.104004892,0.104004892,0.104004892
1.460000,-0.000000000,0.000000000,0.104946662,0.000000000,0.000000000,0.110989975,0.000000000,-0.000000000,0.028678328,0.000000000,0.000000000,0.000000000,-0.000000000,-0.000000000,0.000000000,-0.000000000,0.000000000,0.095676595,0.416038417,-0.000000000000,-0.000000000000,-0.000000000000,0.104009604,0.104009604,0.104009604,0.104009604
1.470000,-0.000000000,0.000000000,0.105238217,0.000000000,0.000000000,0.111452284,0.000000000,-0.000000000,0.029632592,0.000000000,0.000000000,0.000000000,-0.000000000,-0.000000000,0.000000000,-0.000000000,0.000000000,0.096081686,0.416055431,-0.000000000000,-0.000000000000,-0.000000000000,0.104013858,0.104013858,0.104013858,0.104013858
1.480000,-0.000000000,0.000000000,0.105539334,0.000000000,0.000000000,0.111923200,0.000000000,-0.000000000,0.030590745,0.000000000,0.000000000,0.000000000,-0.000000000,-0.000000000,0.000000000,-0.000000000,0.000000000,0.096444419,0.416070666,-0.000000000000,-0.000000000000,-0.000000000000,0.104017666,0.104017666,0.104017666,0.104017666
1.490000,-0.000000000,0.000000000,0.105850049,0.000000000,0.000000000,0.112402666,0.000000000,-0.000000000,0.031552358,0.000000000,0.000000000,0.000000000,-0.000000000,-0.000000000,0.000000000,-0.000000000,0.000000000,0.096766091,0.416084176,-0.000000000000,-0.000000000000,-0.000000000000,0.104021044,0.104021044,0.104021044,0.104021044
1.500000,-0.000000000,0.000000000,0.106170396,0.000000000,0.000000000,0.112890625,0.000000000,-0.000000000,0.032517015,0.000000000,0.000000000,0.000000000,-0.000000000,-0.000000000,0.000000000,-0.000000000,0.000000000,0.097047968,0.416096015,-0.000000000000,-0.000000000000,-0.000000000000,0.104024004,0.104024004,0.104024004,0.104024004
1.510000,-0.000000000,-0.000000000,0.106500403,0.000000000,0.000000000,0.113387022,0.000000000,-0.000000000,0.033484313,0.000000000,0.000000000,0.000000000,-0.000000000,-0.000000000,0.000000000,-0.000000000,0.000000000,0.097291283,0.416106234,-0.000000000000,-0.000000000000,-0.000000000000,0.104026558,0.104026558,0.104026558,0.104026558
1.520000,-0.000000000,-0.000000000,0.106840094,0.000000000,0.000000000,0.113891800,0.000000000,-0.000000000,0.034453859,0.000000000,0.000000000,0.000000000,-0.000000000,-0.000000000,0.000000000,-0.000000000,0.000000000,0.097497239,0.416114884,-0.000000000000,-0.000000000000,-0.000000000000,0.104028721,0.104028721,0.104028721,0.104028721
1.530000,-0.000000000,-0.000000000,0.107189490,0.000000000,0.000000000,0.114404903,0.000000000,-0.000000000,0.035425276,0.000000000,0.000000000,0.000000000,-0.000000000,-0.000000000,0.000000000,-0.000000000,0.000000000,0.097667006,0.416122014,-0.000000000000,-0.000000000000,-0.000000000000,0.104030504,0.104030504,0.104030504,0.104030504
1.540000,-0.000000000,-0.000000000,0.107548608,0.000000000,0.000000000,0.114926275,0.000000000,-0.000000000,0.036398194,0.000000000,0.000000000,0.000000000,-0.000000000,-0.000000000,0.000000000,-0.000000000,0.000000000,0.097801726,0.416127672,-0.000000000000,-0.000000000000,-0.000000000000,0.104031918,0.104031918,0.104031918,0.104031918
1.550000,-0.000000000,-0.000000000,0.107917460,0.000000000,0.000000000,0.115455859,0.000000000,-0.000000000,0.037372260,0.000000000,0.000000000,0.000000000,-0.000000000,-0.000000000,0.000000000,-0.000000000,0.000000000,0.097902508,0.416131905,-0.000000000000,-0.000000000000,-0.000000000000,0.104032976,0.104032976,0.104032976,0.104032976
1.560000,-0.000000000,-0.000000000,0.108296057,0.000000000,0.000000000,0.115993600,0.000000000,-0.000000000,0.038347127,0.000000000,0.000000000,0.000000000,-0.000000000,-0.000000000,0.000000000,-0.000000000,0.000000000,0.097970435,0.416134758,-0.000000000000,-0.000000000000,-0.000000000000,0.104033690,0.104033690,0.104033690,0.104033690
1.570000,-0.000000000,-0.000000000,0.108684405,0.000000000,0.000000000,0.116539441,0.000000000,-0.000000000,0.039322462,-0.000000000,0.000000000,0.000000000,-0.000000000,-0.000000000,0.000000000,-0.000000000,0.000000000,0.098006562,0.416136276,-0.000000000000,-0.000000000000,-0.000000000000,0.104034069,0.104034069,0.104034069,0.104034069
1.580000,-0.000000000,-0.000000000,0.109082507,0.000000000,0.000000000,0.117093325,0.000000000,-0.000000000,0.040297941,-0.000000000,0.000000000,0.000000000,-0.000000000,-0.000000000,0.000000000,-0.000000000,0.000000000,0.098011914,0.416136500,-0.000000000000,-0.000000000000,-0.000000000000,0.104034125,0.104034125,0.104034125,0.104034125
1.590000,0.000000000,-0.000000000,0.109490364,0.000000000,0.000000000,0.117655197,0.000000000,-0.000000000,0.041273252,-0.000000000,0.000000000,0.000000000,-0.000000000,-0.000000000,0.000000000,-0.000000000,0.000000000,0.097987492,0.416135475,-0.000000000000,-0.000000000000,-0.000000000000,0.104033869,0.104033869,0.104033869,0.104033869
1.600000,0.000000000,-0.000000000,0.109907971,0.000000000,0.000000000,0.118225000,0.000000000,-0.000000000,0.042248091,-0.000000000,0.000000000,0.000000000,-0.000000000,-0.000000000,0.000000000,-0.000000000,0.000000000,0.097934268,0.416133239,-0.000000000000,-0.000000000000,-0.000000000000,0.104033310,0.104033310,0.104033310,0.104033310
1.610000,0.000000000,-0.000000000,0.110335322,0.000000000,0.000000000,0.118802678,0.000000000,-0.000000000,0.043222166,-0.000000000,0.000000000,0.000000000,-0.000000000,-0.000000000,0.000000000,-0.000000000,0.000000000,0.097853188,0.416129834,-0.000000000000,-0.000000000000,-0.000000000000,0.104032458,0.104032458,0.104032458,0.104032458
1.620000,0.000000000,-0.000000000,0.110772409,0.000000000,0.000000000,0.119388175,0.000000000,-0.000000000,0.044195193,-0.000000000,0.000000000,0.000000000,-0.000000000,-0.000000000,0.000000000,-0.000000000,0.000000000,0.097745176,0.416125297,0.000000000000,-0.000000000000,-0.000000000000,0.104031324,0.104031324,0.104031324,0.104031324
1.630000,0.000000000,-0.000000000,0.111219220,0.000000000,0.000000000,0.119981434,0.000000000,-0.000000000,0.045166897,-0.000000000,0.000000000,0.000000000,-0.000000000,-0.000000000,0.000000000,-0.000000000,0.000000000,0.097611128,0.416119667,0.000000000000,-0.000000000000,-0.000000000000,0.104029917,0.104029917,0.104029917,0.104029917
1.640000,0.000000000,-0.000000000,0.111675739,0.000000000,0.000000000,0.120582400,0.000000000,-0.000000000,0.046137014,-0.000000000,0.000000000,0.000000000,-0.000000000,-0.000000000,0.000000000,-0.000000000,0.000000000,0.097451918,0.416112981,0.000000000000,-0.000000000000,-0.000000000000,0.104028245,0.104028245,0.104028245,0.104028245
1.650000,0.000000000,-0.000000000,0.112141951,0.000000000,0.000000000,0.121191016,0.000000000,-0.000000000,0.047105286,-0.000000000,0.000000000,0.000000000,-0.000000000,-0.000000000,0.000000000,-0.000000000,0.000000000,0.097268394,0.416105273,0.000000000000,-0.000000000000,-0.000000000000,0.104026318,0.104026318,0.104026318,0.104026318
1.660000,0.000000000,-0.000000000,0.112617835,0.000000000,0.000000000,0.121807225,0.000000000,-0.000000000,0.048071467,-0.000000000,0.000000000,0.000000000,-0.000000000,-0.000000000,0.000000000,-0.000000000,0.000000000,0.097061384,0.416096578,0.000000000000,-0.000000000000,-0.000000000000,0.104024145,0.104024145,0.104024145,0.104024145
1.670000,0.000000000,-0.000000000,0.113103369,0.000000000,0.000000000,0.122430972,0.000000000,-0.000000000,0.049035317,-0.000000000,0.000000000,0.000000000,-0.000000000,-0.000000000,0.000000000,-0.000000000,0.000000000,0.096831692,0.416086931,0.000000000000,-0.000000000000,-0.000000000000,0.104021733,0.104021733,0.104021733,0.104021733
1.680000,0.000000000,-0.000000000,0.113598529,0.000000000,0.000000000,0.123062200,0.000000000,-0.000000000,0.049996605,-0.000000000,0.000000000,0.000000000,-0.000000000,-0.000000000,0.000000000,-0.000000000,0.000000000,0.096580100,0.416076364,0.000000000000,-0.000000000000,-0.000000000000,0.104019091,0.104019091,0.104019091,0.104019091
1.690000,0.000000000,-0.000000000,0.114103288,0.000000000,0.000000000,0.123700853,0.000000000,-0.000000000,0.050955106,-0.000000000,0.000000000,0.000000000,-0.000000000,-0.000000000,0.000000000,-0.000000000,0.000000000,0.096307368,0.416064909,0.000000000000,-0.000000000000,-0.000000000000,0.104016227,0.104016227,0.104016227,0.104016227
1.700000,0.000000000,-0.000000000,0.114617617,0.000000000,0.000000000,0.124346875,0.000000000,-0.000000000,0.051910607,-0.000000000,0.000000000,0.000000000,-0.000000000,-0.000000000,0.000000000,-0.000000000,0.000000000,0.096014235,0.416052598,0.000000000000,-0.000000000000,-0.000000000000,0.104013149,0.104013149,0.104013149,0.104013149
1.710000,0.000000000,-0.000000000,0.115141484,0.000000000,0.000000000,0.125000209,0.000000000,-0.000000000,0.052862897,-0.000000000,0.000000000,0.000000000,-0.000000000,-0.000000000,0.000000000,-0.000000000,0.000000000,0.095701423,0.416039460,0.000000000000,-0.000000000000,-0.000000000000,0.104009865,0.104009865,0.104009865,0.104009865
1.720000,0.000000000,-0.000000000,0.115674858,0.000000000,0.000000000,0.125660800,0.000000000,-0.000000000,0.053811778,-0.000000000,0.000000000,0.000000000,-0.000000000,-0.000000000,0.000000000,-0.000000000,0.000000000,0.095369628,0.416025524,0.000000000000,-0.000000000000,-0.000000000000,0.104006381,0.104006381,0.104006381,0.104006381
1.730000,0.000000000,-0.000000000,0.116217702,0.000000000,0.000000000,0.126328591,0.000000000,-0.000000000,0.054757054,-0.000000000,0.000000000,0.000000000,-0.000000000,-0.000000000,0.000000000,-0.000000000,0.000000000,0.095019531,0.416010820,0.000000000000,-0.000000000000,-0.000000000000,0.104002705,0.104002705,0.104002705,0.104002705
1.740000,0.000000000,-0.000000000,0.116769981,0.000000000,0.000000000,0.127003525,0.000000000,-0.000000000,0.055698539,-0.000000000,0.000000000,0.000000000,-0.000000000,-0.000000000,0.000000000,-0.000000000,0.000000000,0.094651793,0.415995375,0.000000000000,-0.000000000000,-0.000000000000,0.103998844,0.103998844,0.103998844,0.103998844
1.750000,0.000000000,-0.000000000,0.117331654,0.000000000,0.000000000,0.127685547,0.000000000,-0.000000000,0.056636053,-0.000000000,0.000000000,0.000000000,-0.000000000,-0.000000000,0.000000000,-0.000000000,0.000000000,0.094267055,0.415979216,0.000000000000,-0.000000000000,-0.000000000000,0.103994804,0.103994804,0.103994804,0.103994804
1.760000,0.000000000,-0.000000000,0.117902681,0.000000000,0.000000000,0.128374600,0.000000000,-0.000000000,0.057569423,-0.000000000,0.000000000,0.000000000,-0.000000000,-0.000000000,0.000000000,-0.000000000,0.000000000,0.093865942,0.415962370,0.000000000000,-0.000000000000,-0.000000000000,0.103990592,0.103990592,0.103990592,0.103990592
