t,x,y,z,x_ref,y_ref,z_ref,vx,vy,vz,roll,pitch,yaw,roll_ref,pitch_ref,yaw_ref,acc_x_cmd,acc_y_cmd,acc_z_cmd,thrust_total,tau_x,tau_y,tau_z,f1,f2,f3,f4
0.0,0.0,0.0,0.0,0.0,0.0,0.0,0.0,0.0,0.0,0.0,0.0,0.0,0.0,0.0,0.0,0.0,0.0,0.0,0.26487,0.0,0.0,0.0,0.06621749999999998,0.06621750000000001,0.06621749999999998,0.06621750000000001
0.01,3.5196955829696687e-07,1.999057075459891e-08,0.001180147098580911,0.0,0.0,0.0,4.080439944710175e-05,4.961398853548979e-06,0.19346085275565394,0.0,0.0,0.0,2.2778069197948293e-06,-1.874990521044089e-05,0.0,-0.00018393657011442515,-2.2345285883187275e-05,-0.7791540729662298,0.2438328400299118,1.025013113986617e-08,-8.437457344601106e-08,0.0,0.0609589378898209,0.06095878019549571,0.060957482125134965,0.060957639819460216
0.02,6.16648280438659e-07,5.996891445706793e-08,0.003391828566805352,0.0,0.0,0.0,1.767376090999141e-05,1.6705594377736823e-06,0.23186223789878527,-2.370718024800446e-06,5.619890092121651e-05,-6.979517843117132e-10,7.721190559343308e-07,-8.163803011962908e-06,0.0,-8.008690754735613e-05,-7.574487938715785e-06,-0.9427121801457652,0.23941677151481414,2.5262851027444206e-07,-2.5387584481365262e-06,-2.9491914638351686e-11,0.059875666314905686,0.0598717772647804,0.05983272190016091,0.05983660603496714
0.03,7.630178184822595e-07,7.369949624316602e-08,0.0056721454738424175,0.0,0.0,0.0,1.9450855922506484e-05,1.7742015828134584e-06,0.22327577172518184,-8.027305490824551e-06,9.763014713277168e-05,5.5041875158027e-10,8.209909932815057e-07,-8.99241260834997e-06,0.0,-8.821556768791322e-05,-8.053921644091571e-06,-0.9186277415330183,0.2400670521304602,1.2275707597799832e-07,-1.371540553267266e-06,-1.4831519855280216e-11,0.06002825824774307,0.06002636844138345,0.06000526905344699,0.060007156387886694
0.04,1.0079522194862483e-06,9.566095237590737e-08,0.007858571208396344,0.0,0.0,0.0,2.961673835689867e-05,2.6252725794960105e-06,0.21401048368728162,-9.2954413683068e-06,0.00011123689103971128,1.9858058751154352e-09,1.2135172795605668e-06,-1.367813247742932e-05,0.0,-0.00013418247960358165,-1.190460451248916e-05,-0.8914055051869101,0.2408020528601564,7.321636079562036e-08,-8.528549430241831e-07,-1.4046985676140309e-11,0.06020763742574416,0.060206509849611345,0.06019339017491616,0.06019451540988475
0.05,1.3563587282994666e-06,1.2629375580978027e-07,0.009953737643926791,0.0,0.0,0.0,4.00765547021962e-05,3.5024167090851324e-06,0.20502383401389826,-9.779915314933821e-06,0.00011668041681432836,3.4186033756351775e-09,1.6188434514681331e-06,-1.8508177269658753e-05,0.0,-0.0001815652190153524,-1.5880854258902386e-05,-0.8648871554532636,0.24151804845836405,5.928158638956285e-08,-6.986584888574974e-07,-1.5112881140301602e-11,0.060385343052565515,0.06038442976875279,0.06037368243602324,0.06037459320102251
0.060000000000000005,1.8093730915097812e-06,1.657016139160774e-07,0.011960393681459371,0.0,0.0,0.0,5.0490083948002723e-05,4.376165455642031e-06,0.19630833106752454,-9.855273256655968e-06,0.00011748027386263257,4.850816914369369e-09,2.023461884159981e-06,-2.33265864983049e-05,0.0,-0.00022883381354837107,-1.9850161083609414e-05,-0.8390550958366654,0.2422155140956554,5.0742222411040714e-08,-5.99311265035816e-07,-1.6197598779077555e-11,0.06055887961025568,0.06055809761088026,0.06054887878737188,0.060549658087147566
0.07,2.3651631096187547e-06,2.1373402521741661e-07,0.013881214329322917,0.0,0.0,0.0,6.059108180192003e-05,5.223885772764422e-06,0.18785668766217842,-9.65402978739434e-06,0.00011504120754304313,6.269590910033177e-09,2.416975871701982e-06,-2.8011061662313666e-05,0.0,-0.00027478851490729707,-2.3710533301396447e-05,-0.8138922151306668,0.24289491181008482,4.294459491595851e-08,-5.073203522331955e-07,-1.7242517755589677e-11,0.06072796147824519,0.06072729935529311,0.06071949586367367,0.06072015511287285
0.08,3.0194336336206204e-06,2.700316161789612e-07,0.01571880271496902,0.0,0.0,0.0,7.015133705338599e-05,6.026251392766109e-06,0.17966181453931981,-9.223104438326109e-06,0.00010989254533152799,7.664760275057529e-09,2.7904853519691646e-06,-3.245652466977528e-05,0.0,-0.0003183985070104955,-2.7374661302817505e-05,-0.7893818703746398,0.24355669098088442,3.5271334021450645e-08,-4.1657947112930585e-07,-1.8237008006850488e-11,0.06089264928052066,0.060892105124862005,0.060885697729672186,0.06088623884582957
0.09,3.765774631429616e-06,3.3405597827293613e-07,0.017475692032883607,0.0,0.0,0.0,7.897587408578965e-05,6.766759512469551e-06,0.17171681411040346,-8.59660445499431e-06,0.00010243375008048171,9.026090568295155e-09,3.1363680923009445e-06,-3.657294908810806e-05,0.0,-0.0003587806305543401,-3.076777098547227e-05,-0.76550787058959,0.24420128878426667,2.7733218672621244e-08,-3.2740595119206437e-07,-1.9171819552571364e-11,0.061053054834660656,0.0610526265721064,0.06104759115512428,0.06104801622237533
0.09999999999999999,4.595990657414391e-06,4.0511757924181104e-07,0.019154347431215156,0.0,0.0,0.0,8.690255159971212e-05,7.431684633058941e-06,0.1640149744569367,-7.806828666025726e-06,9.304631406137205e-05,1.0343105330553971e-08,3.448261218047396e-06,-4.02852062987133e-05,0.0,-0.0003951978737903775,-3.3827442549044956e-05,-0.7422544612682149,0.24482913061303732,2.042877499966199e-08,-2.4099562108486947e-07,-2.0037723715535664e-11,0.06120929444505743,0.061208978486401,0.06120527253127151,0.06120558515030738
0.10999999999999999,5.500428389021732e-06,4.824034559623065e-07,0.020757167839604754,0.0,0.0,0.0,9.380184977049329e-05,8.01005874742101e-06,0.15654976356998918,-6.88553380933413e-06,8.210584403090318e-05,1.160566407719039e-08,3.721054805969291e-06,-4.353299791206313e-05,0.0,-0.0004270587095173393,-3.6503547646558743e-05,-0.7196063095581781,0.2454406304750504,1.3458153056738488e-08,-1.5853819030044586e-07,-2.082605542006101e-11,0.06136148153530996,0.0613612727512968,0.06135883543771984,0.06135904075072381
0.11999999999999998,6.468300007167599e-06,5.65004548517023e-07,0.022286487740549307,0.0,0.0,0.0,9.957622385862498e-05,8.493616542554291e-06,0.1493148238165272,-5.863706353658477e-06,6.997890242711439e-05,1.2804540213238397e-08,3.950869394758969e-06,-4.627058892663234e-05,0.0,-0.00045391447737026325,-3.8758028762585484e-05,-0.6975484900985807,0.24603619137399343,6.90917625039662e-09,-8.107345847947821e-08,-2.1529293090615343e-11,0.061509725530050144,0.061509617440923176,0.061508371951054304,0.06150847645196581
0.12999999999999998,7.487997681790723e-06,6.519422825406886e-07,0.02374457888651027,0.0,0.0,0.0,0.00010415897587061034,8.8767001327874e-06,0.14230396662143804,-4.77114775315407e-06,5.701802743886121e-05,1.3931857092370253e-08,4.1350148589150816e-06,-4.846631899402224e-05,0.0,-0.0004754545893313582,-4.056449576595695e-05,-0.6760664714750484,0.24661620567386217,8.550527659087771e-10,-9.467602606559263e-09,-2.2141478580499102e-11,0.061654131746068465,0.06165411674628734,0.061653972935985804,0.06165398424552056
0.13999999999999999,8.547394543510663e-06,7.421940106493786e-07,0.02513365196487269,0.0,0.0,0.0,0.0001075126898143419,9.156126949949314e-06,0.1355111673548669,-3.6360820493010103e-06,4.3557078855846335e-05,1.498136190982087e-08,4.271932271650236e-06,-5.010191225827708e-05,0.0,-0.0004914997592536982,-4.190765558488882e-05,-0.6551461032613947,0.2471810554480547,-4.645850385173568e-09,5.558896397409655e-08,-2.2658463787198008e-11,0.06179480146139048,0.061794871047806496,0.06179572815084215,0.06179565478801556
0.15,9.63412808296808e-06,8.34716970114989e-07,0.026455858212758573,0.0,0.0,0.0,0.00010962729269717308,9.331026005687191e-06,0.12893056041508907,-2.48481972042612e-06,2.990725937270583e-05,1.5948545700098876e-08,4.361121115922691e-06,-5.117161390539757e-05,0.0,-0.0005019935324119502,-4.27825981472016e-05,-0.6347736036177699,0.24773111281387583,-9.549711720566951e-09,1.1357800786445341e-07,-2.3077991440871534e-11,0.06193183202874742,0.06193197702422335,0.06193372630135642,0.06193357745954864
0.16,1.0735862561395671e-05,9.28470468021419e-07,0.027713290983603606,0.0,0.0,0.0,0.00011051780663722957,9.40264804292091e-06,0.12255643449768501,-1.341483027506587e-06,1.63538653114747e-05,1.6830628722782535e-08,4.4030543463572315e-06,-5.1681183096104917e-05,0.0,-0.0005069924061727893,-4.319396313776444e-05,-0.6149355474169562,0.24826674025316492,-1.3826704586120618e-08,1.6414694321975288e-07,-2.3399637012920492e-11,0.062065317010216045,0.06206552777877841,0.06206805506633614,0.06206784039783432
0.17,1.1840527671565705e-05,1.022436060499074e-06,0.02890798726731636,0.0,0.0,0.0,0.00011022185754167157,9.374155105162265e-06,0.11638322804229023,-2.277927100825026e-07,3.1537637423767503e-06,1.7626436426635654e-08,4.399083815566189e-06,-5.1646772053203994e-05,0.0,-0.0005066548338419312,-4.315501223070432e-05,-0.5956188548720845,0.24878829091969745,-1.7460256964758223e-08,2.0710006687706966e-07,-2.362463538985742e-11,0.06219534632717768,0.062195612977796015,0.06219880110139063,0.06219853051333313
0.18000000000000002,1.2936531337061513e-05,1.1156355474420917e-06,0.03004192916575431,0.0,0.0,0.0,0.00010879700447176472,9.250394940540185e-06,0.11040552484866414,8.370857352007534e-07,-9.466425123581222e-06,1.833619410031096e-08,4.351338532365017e-06,-5.1093720522558264e-05,0.0,-0.0005012293983262966,-4.268663100250082e-05,-0.5768107806405509,0.2492961089339626,-2.0446155916560253e-08,2.4238795542410647e-07,-2.37556334842493e-11,0.062322006422452225,0.062322318999061,0.062326050024165164,0.0623257334882842
0.19000000000000003,1.4012945167908363e-05,1.2071466573436487e-06,0.0311170453251706,0.0,0.0,0.0,0.0001063179514403548,9.037665456998865e-06,0.10461804985426253,1.8366388889027677e-06,-2.131147221262684e-05,1.8961268828470475e-08,4.262618132616856e-06,-5.005529379538369e-05,0.0,-0.0004910424321327141,-4.181628388097136e-05,-0.5584989033803178,0.2497905296658775,-2.2791525760696845e-08,2.700953673789908e-07,-2.3796388964614717e-11,0.062445380431884495,0.06244572908770997,0.06244988638408664,0.0624495337621964
0.20000000000000004,1.5059661692464875e-05,1.296116347732974e-06,0.03213521232720937,0.0,0.0,0.0,0.00010287370014058958,8.743474170980257e-06,0.09901566506591063,2.7570487713234235e-06,-3.221805097648707e-05,1.9503885886197087e-08,4.136283822605248e-06,-4.8571391045450706e-05,0.0,-0.00047648534615587145,-4.057694429975748e-05,-0.5406711157360846,0.2502718800059684,-2.4513707883583345e-08,2.904279806069944e-07,-2.3751451102365465e-11,0.06256554836276287,0.06256592351744275,0.06257039361950889,0.06257001450625388
0.21000000000000005,1.6067523051089803e-05,1.3817716944846946e-06,0.03309825603995546,0.0,0.0,0.0,9.856469812294532e-05,8.376297255655816e-06,0.09359336563855951,3.5871867365203343e-06,-4.205466328785806e-05,1.996684368005189e-08,3.9761489052203495e-06,-4.668724896016664e-05,0.0,-0.0004580019122992347,-3.900602076021163e-05,-0.5233156147340376,0.2507404786255234,-2.563906917468559e-08,3.036982843142755e-07,-2.3625850427079504e-11,0.06268258727653367,0.0626829797549309,0.06268765400504887,0.06268725758900996
0.22000000000000006,1.7028421359777744e-05,1.4634283874323887e-06,0.03400795293047592,0.0,0.0,0.0,9.350003235399028e-05,7.945342407692224e-06,0.08834627609447103,4.318562369957752e-06,-5.072103279165829e-05,2.0353247247167827e-08,3.7863708259608333e-06,-4.445216358988341e-05,0.0,-0.0004360757248167562,-3.714429780267578e-05,-0.5064208925650258,0.25119663622620386,-2.6201764829065293e-08,3.103109309166977e-07,-2.342481136036658e-11,0.06279657147338671,0.06279697262539341,0.06280174859178281,0.06280134353564093
0.23000000000000007,1.7935371426340764e-05,1.5404968898009983e-06,0.03486603134022582,0.0,0.0,0.0,8.779471303600161e-05,7.460319324704687e-06,0.08326964667651736,4.945232216224331e-06,-5.8147022856421e-05,2.066627558839711e-08,3.5713464838411865e-06,-4.191825106480264e-05,0.0,-0.00041121804294571397,-3.503490900648204e-05,-0.48997572773708564,0.2516406557795838,-2.624247985063395e-08,3.1074783548473825e-07,-2.315350850471515e-11,0.06290757267643057,0.0629079744774308,0.06291275714282034,0.06291235148290207
0.24000000000000007,1.8782556923736343e-05,1.6124863546337129e-06,0.03567417272462955,0.0,0.0,0.0,8.156708716925865e-05,6.931221129739457e-06,0.07835884982960159,5.4636734074870716e-06,-6.429113916189445e-05,2.0908993177800213e-08,3.3356123466594884e-06,-3.913926539174583e-05,0.0,-0.00038395619349302664,-3.2722357120729584e-05,-0.4739691765792393,0.25207283275707565,-2.5807171793209445e-08,3.055532899382428e-07,-2.2816870882330548e-11,0.06301566021334314,0.06301605534534947,0.06302075806660055,0.06302035913178249
0.25000000000000006,1.956535149199314e-05,1.679006422390463e-06,0.03643401285809018,0.0,0.0,0.0,7.493641572107669e-05,6.368119604693362e-06,0.0736093768045096,5.872627403007337e-06,-6.91386786127105e-05,2.1084211211134635e-08,3.083750695452708e-06,-3.616948899975932e-05,0.0,-0.0003548226870876389,-3.025159432239107e-05,-0.4583905650794442,0.2524934553506881,-2.4945835324631466e-08,2.953193358997408e-07,-2.2419448173167618e-11,0.06312090119357551,0.0631212831073701,0.06312582835005588,0.06312544269968663
0.26000000000000006,2.0280316550245105e-05,1.7397670501003873e-06,0.0371471430056241,0.0,0.0,0.0,6.802064254313594e-05,5.780976611283966e-06,0.06901683437878871,6.172919091881669e-06,-7.269958676335549e-05,2.11943998169336e-08,2.8203031038097057e-06,-3.306270910696558e-05,0.0,-0.0003243451763393323,-2.7667173448373216e-05,-0.4432294810404633,0.25290280468505066,-2.3711307118592376e-08,2.806716150336335e-07,-2.1965326196472026e-11,0.06322336067939109,0.06322372363828756,0.06322804349357806,0.06322767687379395
0.2700000000000001,2.092517785314849e-05,1.7945765438169572e-06,0.03781511106226546,0.0,0.0,0.0,6.093437745892225e-05,5.179473595109144e-06,0.06457694168952174,6.367256462976245e-06,-7.500608536819994e-05,2.124164875724502e-08,2.549692038187284e-06,-2.9871290380528416e-05,0.0,-0.0002930373586329838,-2.5012478894617257e-05,-0.42847576653828157,0.25330115502112616,-2.215812728612604e-08,2.622558892249005e-07,-2.1458097635449775e-11,0.06332310184924192,0.06332344095533307,0.06332747744949595,0.06332713476705522
0.2800000000000001,2.1498783021952666e-05,1.843337982696235e-06,0.038439422661334925,0.0,0.0,0.0,5.378711032436175e-05,4.572860593779785e-06,0.06028552717312121,6.460015916204411e-06,-7.61101301328675e-05,2.1227671244850984e-08,2.2761512492936244e-06,-2.6645351802179947e-05,0.0,-0.0002613909011793853,-2.2329043755570455e-05,-0.414119510668492,0.2536887739520222,-2.0341471290914288e-08,2.4072539548990674e-07,-2.090087798901543e-11,0.0634201861522079,0.06342049735618027,0.06342420256554301,0.06342388787809103
0.2900000000000001,2.2001042421182447e-05,1.8860442349190654e-06,0.03902154225261967,0.0,0.0,0.0,4.668166743494323e-05,3.969825711504651e-06,0.056138525607513576,6.457018087045841e-06,-7.608075634740176e-05,2.115384344474928e-08,2.0036654153867523e-06,-2.343205317393565e-05,0.0,-0.00022986844163630876,-1.9655957724944043e-05,-0.4001510425668428,0.2540659225912941,-1.831616391686718e-08,2.1672917285928334e-07,-2.029635725942477e-11,0.06351467345245294,0.06351495354822705,0.0635182895345572,0.06351800605605694
0.3000000000000001,2.2432855839549472e-05,1.9227717730997682e-06,0.039562894151466514,0.0,0.0,0.0,3.97129164887881e-05,3.3783855863772496e-06,0.05213197525231569,6.365298791015842e-06,-7.500136694442959e-05,2.1021270999660195e-08,1.7359192989951482e-06,-2.027499433793486e-05,0.0,-0.00019889769445514098,-1.7029368323142404e-05,-0.3865609246908621,0.2544328557541196,-1.613578455651583e-08,1.9090147111142277e-07,-1.964687661772098e-11,0.06360662216287538,0.06360686876847502,0.06360980735142412,0.0636095574713451
0.3100000000000001,2.279602747135272e-05,1.9536735000206105e-06,0.04006486355974718,0.0,0.0,0.0,3.29667214852146e-05,2.805796968559152e-06,0.04826201508282623,6.192879376288864e-06,-7.296701374994028e-05,2.0830873477703923e-08,1.4762564916957965e-06,-1.721372797224089e-05,0.0,-0.00016886667140768316,-1.4482076183535764e-05,-0.3733399463501672,0.2547898221317054,-1.3851870769136542e-08,1.638523231494031e-07,-1.8954525942225775e-11,0.06369608936736042,0.06369630089352075,0.0636988232780361,0.06369860859278816
0.3200000000000001,2.3093171685867543e-05,1.9789707948075982e-06,0.04052879755961379,0.0,0.0,0.0,2.6519144495274644e-05,2.258489152182455e-06,0.04452488211386475,5.9485404105667164e-06,-7.008171838977109e-05,2.0583477878180377e-08,1.227647649326021e-06,-1.4283384785526674e-05,0.0,-0.00014012000474601668,-1.2043223439888265e-05,-0.3604791174737211,0.2551370644592697,-1.151322489188265e-08,1.3615933749806416e-07,-1.8221243946322544e-11,0.0637831309312483,0.06378330653934813,0.06378540281682352,0.06378522417184976
0.3300000000000001,2.3327612021147065e-05,1.9989449853648125e-06,0.04095600608092441,0.0,0.0,0.0,2.0435887226977623e-05,1.7420166647663508e-06,0.04091690880968951,5.6416022326407135e-06,-6.64558746483281e-05,2.0279913115306227e-08,9.926679640718806e-07,-1.1514408087709648e-05,0.0,-0.00011295634334043165,-9.73807272754515e-06,-0.3479696626029179,0.2554748196779242,-9.16532635159496e-09,1.0836074314981958e-07,-1.744891942952147e-11,0.06386780159983088,0.06386794115077507,0.0638696096932078,0.06386946723411042
0.34000000000000014,2.350327574974186e-05,2.0139284453896107e-06,0.04134776284318121,0.0,0.0,0.0,1.4771961757650009e-05,1.2610313180141397e-06,0.03743452057641535,5.281715478758808e-06,-6.220376909796828e-05,1.9921098591112294e-08,7.734834815681711e-07,-8.932393076879992e-06,0.0,-8.762677608419272e-05,-7.5878729541837585e-06,-0.33580301509997684,0.2558033190907597,-6.8498503782516205e-09,8.094969473662159e-08,-1.6639483828010965e-11,0.06395015508488547,0.06395025908057536,0.063951505847118,0.06395139907818087
0.35000000000000014,2.3624586241835075e-05,2.024295504000341e-06,0.04170530627278942,0.0,0.0,0.0,9.571576740526472e-06,8.192724648515023e-07,0.034074233333530456,4.8786642580365056e-06,-5.7441251651255065e-05,1.9508121429582054e-08,5.718457513386426e-07,-6.558024765547471e-06,0.0,-6.43342229500207e-05,-5.609806820632085e-06,-0.3239708115616742,0.25612278851342113,-4.6042920348036175e-09,5.436982481327212e-08,-1.579499015694115e-11,0.06403024413942718,0.06403031365844011,0.06403115143353254,0.0640310792820213
0.36000000000000015,2.3696355201104693e-05,2.0304533433365657e-06,0.04202984039641172,0.0,0.0,0.0,4.868222823610966e-06,4.195740904594996e-07,0.030832651161281838,4.44218420835995e-06,-5.2283582442508246e-05,1.9042298524453252e-08,3.8909419808740933e-07,-4.407107276987111e-06,0.0,-4.323372238724357e-05,-3.817014083237486e-06,-0.31246488642898007,0.25643344841943744,-2.4616927640069732e-09,2.9012010576800723e-08,-1.4917672821341288e-11,0.06410812062101874,0.06410815725007572,0.06410860483183936,0.06410856571650361
0.37000000000000016,2.3723676675242457e-05,2.0328330448596625e-06,0.04232253571116137,0.0,0.0,0.0,6.849389481230597e-07,6.38871900254663e-08,0.027706464020859082,3.98179722223176e-06,-4.684347621030948e-05,1.8525221130977422e-08,2.261655196464095e-07,-2.4906762766841977e-06,0.0,-2.443353427427198e-05,-2.2186837477312775e-06,-0.30127726678366246,0.25673551408055517,-4.504652894664589e-10,5.212305120138099e-09,-1.4009989881797089e-11,0.06418383554411597,0.06418384130685206,0.06418392266366074,0.0641839145659264
0.38000000000000017,2.3711824551437894e-05,2.0318809289075833e-06,0.04258453003234746,0.0,0.0,0.0,-2.9652603834990127e-06,-2.4668424756992457e-07,0.024692445544458316,3.5066641981137097e-06,-4.122936021361892e-05,1.7958781212896922e-08,8.360935457671185e-08,-8.151855627470487e-07,0.0,-7.996970370548548e-06,-8.202077683975433e-07,-0.29040016732339685,0.2570291957023055,1.4056886413241e-09,-1.6749031718382056e-08,-1.307464522513115e-11,0.06425743912204832,0.06425741640651547,0.06425715981865816,0.06425718035508353
0.3900000000000002,2.3666155042266304e-05,2.0280503147520607e-06,0.0428169293194572,0.0,0.0,0.0,-6.078817859075047e-06,-5.11835423968508e-07,0.02178745089245097,3.0254567534415102e-06,-3.5543856747705795e-05,1.734518005323607e-08,-3.8390581941266896e-08,6.172416745971495e-07,0.0,6.055140827798037e-06,3.766116088438283e-07,-0.27982598550736126,0.25731469855502015,3.0877742145466958e-09,-3.664748059950519e-08,-1.211459059017696e-11,0.06432898079933588,0.06432893228556802,0.06432836948772337,0.06432841598239288
0.4000000000000002,2.359201545352118e-05,2.0217938103608734e-06,0.04302080848103288,0.0,0.0,0.0,-8.660947863103934e-06,-7.3200291274405e-07,0.018988414675018054,2.5462484363877812e-06,-2.9882496599374147e-05,1.6686920688683013e-08,-1.3999072247761421e-07,1.8085067763301367e-06,0.0,1.7741451475798643e-05,1.3733089875053955e-06,-0.2695472968647202,0.25759222310049784,4.581420619803271e-09,-5.43132758340805e-08,-1.11330132532299e-11,0.06439850927512657,0.06439843786398135,0.06439760320287342,0.0643976727585165
0.4100000000000002,2.349466030704145e-05,2.013556222655204e-06,0.04319721215907578,0.0,0.0,0.0,-1.0724854575783863e-05,-9.082986850874234e-07,0.01629234893573821,2.076425599446335e-06,-2.4332665352061875e-05,1.598678652114743e-08,-2.2165807047614282e-07,2.7641846396218226e-06,0.0,2.711665131469008e-05,2.1744656713709612e-06,-0.25955685045879384,0.25786196511450576,5.87672734898093e-09,-6.962958055040683e-08,-1.0133307264144907e-11,0.06446607251860063,0.06446598126296842,0.06446491088309449,0.06446500044984223
0.4200000000000002,2.3379175674150998e-05,2.0037681606322926e-06,0.04334715549358439,0.0,0.0,0.0,-1.229087532094555e-05,-1.0424378119220502e-06,0.013696341194738181,1.6226177530515338e-06,-1.8972780368052462e-05,1.5247808971894183e-08,-2.8413765556050443e-07,3.493137700052913e-06,0.0,3.4267680837519076e-05,2.7873904010485485e-06,-0.24984756450008244,0.25812411580529554,6.968048327115611e-09,-8.252992580406396e-08,-9.119036083810223e-12,0.06453171777723855,0.06453160981657542,0.06453034088532886,0.0645304473261527
0.4300000000000002,2.3250412360606167e-05,1.992840385600282e-06,0.04347162486781123,0.0,0.0,0.0,-1.3385570358933343e-05,-1.1366616299927894e-06,0.011197552549128669,1.190646905058376e-06,-1.3871692575690326e-05,1.4473227290363036e-08,-3.284178357438618e-07,4.007104535234913e-06,0.0,3.9309695490654494e-05,3.2217789686472845e-06,-0.24041252210166525,0.2583788619282973,7.853722742161448e-09,-9.29950190171411e-08,-8.093887954054303e-12,0.06459549157887162,0.06459537007787727,0.06459394005976765,0.06459406021178074
0.4400000000000002,2.311292837620909e-05,1.9811589452383447e-06,0.04357157863480026,0.0,0.0,0.0,-1.4040779431981315e-05,-1.1936580870495845e-06,0.008793215828555748,7.85495114373876e-07,-9.088303903615906e-06,1.3666443640894258e-08,-3.55694229739725e-07,4.320272365476833e-06,0.0,4.2381871905327736e-05,3.4893603937467025e-06,-0.23124496717082416,0.2586263858971485,8.535761641819838e-09,-1.0104902877916786e-07,-7.061623740015219e-12,0.06465743972844774,0.06465730782056926,0.0646557538085951,0.06465588453953637
0.45000000000000023,2.2970940924646766e-05,1.9690811115047847e-06,0.04364794782574551,0.0,0.0,0.0,-1.4292664233487152e-05,-1.2164808855485882e-06,0.006480633803799505,4.112892459803082e-07,-4.6713883509787705e-06,1.2830976396833958e-08,-3.6733302028940897e-07,4.448842224109082e-06,0.0,4.3643142218510096e-05,3.603536929039102e-06,-0.22233830043105282,0.25886686589120794,9.01949929559647e-09,-1.0675545274482229e-07,-6.02603166273634e-12,0.06471760730044078,0.06471746803674387,0.06471582614733247,0.06471596440669082
0.46000000000000024,2.282828796407725e-05,1.956932126784554e-06,0.04370163684069175,0.0,0.0,0.0,-1.4180754602687966e-05,-1.2084689287644014e-06,0.004257177446447836,7.130171100077013e-08,-6.596022730058583e-07,1.1970414230489312e-08,-3.6483431794031394e-07,4.410594958657116e-06,0.0,4.326793654442631e-05,3.57902465899448e-06,-0.2136860755689042,0.2591004759596966,9.313218150951812e-09,-1.1021267328309118e-07,-4.990876205841836e-12,0.06477603862781142,0.06477589493162586,0.0647741997679432,0.06477434263231611
0.47000000000000025,2.2688399218638907e-05,1.945002748275671e-06,0.04373352412207824,0.0,0.0,0.0,-1.3747014684701521e-05,-1.173167441469757e-06,0.002120284237764225,-2.3203419042133446e-07,2.9183325020426837e-06,1.1088373125798152e-08,-3.4979621567298875e-07,4.224465523382449e-06,0.0,4.144200678438183e-05,3.4315008757520196e-06,-0.205281995500409,0.25932738612260026,9.427755922419586e-09,-1.1154930199426884e-07,-3.959854801268766e-12,0.0648327772883972,0.06483263191601052,0.0648309161028908,0.06483106081530174
0.48000000000000026,2.2554276367106552e-05,1.933547567605218e-06,0.043744462811608764,0.0,0.0,0.0,-1.3034943585729008e-05,-1.1142519930461704e-06,6.745652495414268e-05,-4.970958343354009e-07,6.043290630393153e-06,1.0188457925827377e-08,-3.238800998453425e-07,3.910132253352155e-06,0.0,3.835839740538464e-05,3.1772637794828097e-06,-0.197119908752056,0.2595477624684661,9.376102924121638e-09,-1.1091940914084696e-07,-2.9365615721166268e-12,0.06488786608956605,0.06488772159711532,0.06488601538938044,0.0648861593924043
0.49000000000000027,2.242848199872594e-05,1.922784071155245e-06,0.04373528140007725,0.0,0.0,0.0,-1.208872319679808e-05,-1.0354564942658172e-06,-0.0019037362740984493,-7.230313495855023e-07,8.705269283082942e-06,9.2742294978645e-09,-2.887777121915081e-07,3.487626971125179e-06,0.0,3.421362058673801e-05,2.832909356598695e-06,-0.18919382120395384,0.2597617668374037,9.172997238575936e-09,-1.0849772804260449e-07,-1.9244547884621046e-12,0.06494134694896177,0.06494120566555613,0.06493953663011129,0.06493967759277453
0.5000000000000002,2.2313136809521304e-05,1.912892396709884e-06,0.04370678446085932,0.0,0.0,0.0,-1.0952423925448003e-05,-9.405060757388936e-07,-0.0037956471312267075,-9.097098667572813e-07,1.090279792820158e-05,8.349178073779536e-09,-2.461803836850796e-07,2.976970900708139e-06,0.0,2.9204084535946843e-05,2.4150295639506314e-06,-0.1814979415489601,0.2599695555937371,8.834524749769206e-09,-1.0447491738082538e-07,-9.268341070191186e-13,0.06499326054814565,0.06499312455514412,0.06499151732595904,0.06499165316448827
0.5100000000000002,2.2209924411791245e-05,1.904015733532856e-06,0.043659753357077294,0.0,0.0,0.0,-9.669277662610752e-06,-8.330556364314357e-07,-0.0056105675390840035,-1.05766362530034e-06,1.2642251836443797e-05,7.416702861087151e-09,-1.9775080704232899e-07,2.3978407248864688e-06,0.0,2.352281751113626e-05,1.9399354170852474e-06,-0.1740266199505118,0.26017128128227285,8.377730262944433e-09,-9.905295544395508e-08,5.3179158986455334e-14,0.06504364670824246,0.06504351782451619,0.06504199392846234,0.06504212282105186
0.5200000000000002,2.2120103048730815e-05,1.8962613061510264e-06,0.04359494681255779,0.0,0.0,0.0,-8.281024720318817e-06,-7.166346327109473e-07,-0.007350733848004133,-1.168023618994854e-06,1.393708921255506e-05,6.480097624564436e-09,-1.4509761532678772e-07,1.7692679406296577e-06,0.0,1.7356518497576943e-05,1.4234076063557876e-06,-0.1667743252644935,0.26036709324332347,7.820245363933405e-09,-9.24407332080862e-08,1.0126487712549356e-12,0.06509254450693386,0.06509242427985415,0.06509100203034045,0.06509112242619501
0.5300000000000002,2.2044523447892644e-05,1.8897018771882044e-06,0.04351310145784274,0.0,0.0,0.0,-6.827339826656078e-06,-5.945985385742338e-07,-0.009018328347148299,-1.2424504266033317e-06,1.4807031458683724e-05,5.542541629675716e-09,-8.975297046434842e-08,1.1093739160906187e-06,0.0,1.088295811684897e-05,8.804766402552581e-07,-0.15973564317169914,0.2605571376631286,7.179937919516413e-09,-8.484990390516445e-08,1.9488320329906704e-12,0.06513999225644099,0.06513988195826032,0.06513857641272061,0.06513868703570669
0.5400000000000003,2.1983652004456453e-05,1.8843777009730002e-06,0.04341493236547215,0.0,0.0,0.0,-5.345340564840029e-06,-4.700872642292726e-07,-0.010615480331429922,-1.2830618164715577e-06,1.5277205384917935e-05,4.6070951150896984e-09,-3.3153300010945613e-08,4.351422770407058e-07,0.0,4.268745737769324e-06,3.252338731073765e-07,-0.152905274318905,0.26074155762403184,6.474587246262495e-09,-7.649103739480647e-08,2.859176104220066e-12,0.06518602748398823,0.06518592811321837,0.06518475108976299,0.06518485093706225
0.5500000000000003,2.193759846026811e-05,1.8802988575205572e-06,0.04330113357465742,0.0,0.0,0.0,-3.86917990313892e-06,-3.4599067331922967e-07,-0.012144267156393952,-1.2923586336579772e-06,1.5377265231589515e-05,3.676698335570534e-09,2.337674665728803e-08,-2.377705453737165e-07,0.0,-2.332529050116159e-06,-2.2932588470799561e-07,-0.14627803246038257,0.2609204931546362,5.721588314272965e-09,-6.757011845932174e-08,3.741317207904142e-12,0.06523068691513062,0.06523059920247148,0.06522955935041103,0.0652296476866231
0.5600000000000003,2.190614723619713e-05,1.877447895765401e-06,0.043172378605467666,0.0,0.0,0.0,-2.4297228720486347e-06,-2.2492120476134196e-07,-0.013606715280690929,-1.2731503794522064e-06,1.5140511196137498e-05,2.7541731713029154e-09,7.863711310408685e-08,-8.951865023810968e-07,0.0,-8.78177958835856e-06,-7.71430079551092e-07,-0.1398488426018408,0.26109408127988787,4.937687476317631e-09,-5.828541918486924e-08,4.593072831437251e-12,0.06527400646018362,0.065273930878517,0.06527303379700422,0.06527311014418302
0.5700000000000003,2.188879158220364e-05,1.8757827154885142e-06,0.04302932096265466,0.0,0.0,0.0,-1.05430598718824e-06,-1.0919348201590724e-07,-0.015004801295824318,-1.2284817788723043e-06,1.4603019803294528e-05,1.8422263275969778e-09,1.3156196846508722e-07,-1.5245194170882973e-06,0.0,-1.4955535481636197e-05,-1.2906229106425057e-06,-0.13361273914864868,0.2612624560710405,4.138751565464316e-09,-4.882476667665595e-08,5.412433925947533e-12,0.0653160212039208,0.065315957981856,0.06531520638056325,0.06531527050470044
0.5800000000000003,2.1884769730205528e-05,1.8752396191183852e-06,0.04287259462924505,0.0,0.0,0.0,2.334232951839085e-07,-8.106817734133043e-10,-0.016340452942884956,-1.1615615053251061e-06,1.38027999562787e-05,9.434532375822704e-10,1.8122625587992928e-07,-2.114851945516061e-06,0.0,-2.0746697585512562e-05,-1.7778295701821062e-06,-0.1275648640600629,0.26142574869545776,3.3395714351138033e-09,-3.936321895018802e-08,6.197556452526042e-12,0.06535676539863587,0.06535671453707685,0.06535610843262994,0.0653561603271151
0.5900000000000003,2.18931022678679e-05,1.875736467365202e-06,0.042702814550031346,0.0,0.0,0.0,1.4135909561958358e-06,9.854266356160105e-08,-0.017615550116019747,-1.0756940961138187e-06,1.2778986901715403e-05,6.034190959221181e-11,2.2684929969665103e-07,-2.6569777109034013e-06,0.0,-2.6064951343962368e-05,-2.2253916300241466e-06,-0.12170046501106206,0.26158408746621137,2.553700356125522e-09,-3.006115400832881e-08,6.9467539489520295e-12,0.06539627246059987,0.06539623375179826,0.06539577069360963,0.0653958105602036
0.6000000000000003,2.1912629995213278e-05,1.8771758763343327e-06,0.04252057710509538,0.0,0.0,0.0,2.470109490708128e-06,1.8750183906872476e-07,-0.018831925852413917,-9.742159509364167e-07,1.1571084664294335e-05,-8.047238791598249e-10,2.6779565324433e-07,-3.1434107751150386e-06,0.0,-3.083685970387853e-05,-2.627075358326877e-06,-0.11601489356327355,0.26173759789143786,1.7933270916230129e-09,-2.1062769661678895e-08,7.658489483788869e-12,0.0654345749698846,0.06543454801844452,0.06543422333762684,0.0654342515654819
0.6100000000000003,2.1942051578888232e-05,1.8794483982209521e-06,0.04232646057350016,0.0,0.0,0.0,3.3906253700412866e-06,2.6501757547517396e-07,-0.019991367308594857,-8.604361607901527e-07,1.0218265791694985e-05,-1.6494624682737804e-09,3.0357340142183354e-07,-3.5683649934949234e-06,0.0,-3.50056605861852e-05,-2.9780550679481874e-06,-0.11050360334637128,0.26188640272341707,1.0691828500890624e-09,-1.2494984952450335e-08,8.331369965921961e-12,0.06547170467346616,0.06547168891878011,0.0654714959939615,0.0654715131372093
0.6200000000000003,2.197996037913987e-05,1.8824356327697213e-06,0.0421210255872876,0.0,0.0,0.0,4.166407225591312e-06,3.303466671199222e-07,-0.021095616722894554,-7.375827695881828e-07,8.758735530150987e-06,-2.4716935310321456e-09,3.338301583252686e-07,-3.92770610156848e-06,0.0,-3.853079685638679e-05,-3.274873853170885e-06,-0.10516214825121598,0.26203062200733934,3.9048087849667065e-10,-4.466728008982112e-09,8.96414199800307e-12,0.06550769249147419,0.06550768723108792,0.06550761776518362,0.06550762451959362
0.6300000000000003,2.2024879890578812e-05,1.8860132222526112e-06,0.04190481557592138,0.0,0.0,0.0,4.792181594329969e-06,3.8303815645260417e-07,-0.022146372363933006,-6.087549276218487e-07,7.229165855104766e-06,-3.2693387177891666e-09,3.5834701989568796e-07,-4.21887962038795e-06,0.0,-4.138720907600579e-05,-3.5153842651766994e-06,-0.09998618063591419,0.2621703731297295,-2.351130532786153e-10,2.931410068940283e-09,9.555687887009614e-12,0.06554256852640852,0.06554257293983978,0.06554261724214888,0.06554261442133233
0.6400000000000003,2.2075297308001658e-05,1.8900536886379749e-06,0.041678357201315214,0.0,0.0,0.0,5.265923398415437e-06,4.229156901532557e-07,-0.02314528946501007,-4.76881257171045e-07,5.664203136243136e-06,-4.0404236783873045e-09,3.7703074514737276e-07,-4.440817825695306e-06,0.0,-4.3564422870070955e-05,-3.698671609895727e-06,-0.09497144954587816,0.26230577086649887,-8.01481353005026e-10,9.627180120556176e-09,1.0105025737439584e-11,0.06557636207510908,0.06557637524767695,0.06557652251605484,0.06557651102765799
0.6500000000000004,2.212969480130209e-05,1.8944290777629388e-06,0.041442160783587915,0.0,0.0,0.0,5.588608513876788e-06,4.5005666752978065e-07,-0.024093981144316566,-3.4468461790420953e-07,4.096051645365003e-06,-4.783081302902049e-09,3.8990444727408816e-07,-4.5938291165767e-06,0.0,-4.506546363361743e-05,-3.824962627758805e-06,-0.09011379894887936,0.2624369274305974,-1.3040289051141109e-09,1.5566367207686096e-08,1.0611308314159392e-11,0.06560910164323369,0.06560912258949256,0.06560936118778928,0.06560934201008185
0.6600000000000004,2.21865781573675e-05,1.8990133815551838e-06,0.041196720717687416,0.0,0.0,0.0,5.7639358243391295e-06,4.6476880542717783e-07,-0.0249940193108969,-2.1465333508851024e-07,2.5541336390674547e-06,-5.495555934343645e-09,3.970970781753032e-07,-4.679473144868178e-06,0.0,-4.590563155115683e-05,-3.895522336899725e-06,-0.08540916598600577,0.2625639525192403,-1.7396336077994666e-09,2.0712201708563622e-08,1.1073823232852761e-11,0.06564081496197524,0.06564084264838785,0.06564116037482627,0.06564113453405095
0.6700000000000004,2.224450252047134e-05,1.9036847155638796e-06,0.04094251588102647,0.0,0.0,0.0,5.79802606587777e-06,4.675647364122623e-07,-0.02584693555631621,-8.901883833892379e-08,1.0648253833240583e-06,-6.176208253066122e-09,3.988319871193543e-07,-4.700425032097265e-06,0.0,-4.611116956487417e-05,-3.912541793640866e-06,-0.0808535792393543,0.26268695336068737,-2.106576006626194e-09,2.5044522744209226e-08,1.1491996739631819e-11,0.06567152900673286,0.06567156237326092,0.06567194671594441,0.06567191526474918
0.6800000000000004,2.2302095034783222e-05,1.908327235147595e-06,0.04068001003227317,0.0,0.0,0.0,5.699104560807842e-06,4.591352395212958e-07,-0.026654222032004196,3.026044603970123e-08,-3.487327526413628e-07,-6.823520509931301e-09,3.954148268334399e-07,-4.660331911818571e-06,0.0,-4.571785605494019e-05,-3.879019451236046e-06,-0.07644315701721249,0.26280603476055137,-2.40445092851147e-09,2.8558728947699293e-08,1.1865393038385704e-11,0.06570127001743972,0.06570130799777524,0.06570174637405318,0.06570171037128322
0.6900000000000004,2.23580742621116e-05,1.9128327795350116e-06,0.04040965220143951,0.0,0.0,0.0,5.477174625006936e-06,4.4032167651917837e-07,-0.02741733231226542,1.4150919936405382e-07,-1.6667551097576894e-06,-7.436101780774442e-09,3.8722106879659156e-07,-4.563664897903328e-06,0.0,-4.476955264843165e-05,-3.7986386848945634e-06,-0.0721741056574161,0.2629212991476176,-2.6340641684669846e-09,3.126455215182459e-08,1.219371886231386e-11,0.06573006352024569,0.06573010506045307,0.06573058503741984,0.06573054552949899
0.7000000000000004,2.241126631388891e-05,1.917102238539526e-06,0.04013187707141133,0.0,0.0,0.0,5.143688029389803e-06,4.1208817260761916e-07,-0.02813768224296336,2.4333964297459307e-07,-2.872862397306292e-06,-8.012692938771519e-09,3.746833744492187e-07,-4.415569400076873e-06,0.0,-4.331673581475413e-05,-3.675643903346836e-06,-0.06804271784949754,0.2630328466191568,-2.797317198480027e-09,3.318468967759541e-08,1.2476821378784697e-11,0.06575793435025336,0.0657579784256377,0.06575848791958991,0.06575844592367586
0.7100000000000004,2.2460617697870872e-05,1.921046641900743e-06,0.03984710535106289,0.0,0.0,0.0,4.71121841593712e-06,3.754940400689876e-07,-0.028816650775900347,3.346506989050822e-07,-3.954070947033218e-06,-8.552171080906414e-09,3.5827905098023946e-07,-4.221716493353804e-06,0.0,-4.1415038799800824e-05,-3.5147174901161495e-06,-0.06404537097618161,0.2631407749857149,-2.8970828798883696e-09,3.435333028201187e-08,1.2714693561060216e-11,0.06578490667501011,0.06578495230507378,0.06578547975828952,0.06578543624734151
0.7200000000000004,2.2505204936361272e-05,1.924587975986166e-06,0.03955574414009871,0.0,0.0,0.0,4.193143026861358e-06,3.316668976634515e-07,-0.02945558078893099,4.1462233524296673e-07,-4.900724979072905e-06,-9.053553196894153e-09,3.385177998646676e-07,-3.988157804648445e-06,0.0,-3.9123828063601254e-05,-3.3208596166723895e-06,-0.06017852547472023,0.2632451798153663,-2.93707504342795e-09,3.4814607723956706e-08,1.2907470262329162e-11,0.06581100401847056,0.065811050279863,0.06581158481359005,0.06581154070344271
0.7300000000000004,2.2544241063447564e-05,1.9276597368690967e-06,0.039258187285765356,0.0,0.0,0.0,3.603337516540504e-06,2.8177688894385587e-07,-0.030055779891859476,4.827055963761619e-07,-5.706377812680592e-06,-9.515998922415104e-09,3.159299439625885e-07,-3.7211861143256955e-06,0.0,-3.650483578153507e-05,-3.0992727502729934e-06,-0.056438723218506195,0.26334615447741866,-2.9217146451147016e-09,3.462101428805141e-08,1.3055430389927367e-11,0.06583624928515583,0.06583629532256446,0.06583682686560094,0.06583678300409743
0.7400000000000004,2.2577079153340153e-05,1.9302072325699093e-06,0.03895481573157486,0.0,0.0,0.0,2.9558879938304564e-06,2.2701235019515493e-07,-0.030618521218184126,5.38608849898087e-07,-6.367628327849885e-06,-9.938812278674296e-09,2.9105529529251896e-07,-3.4272035892194893e-06,0.0,-3.362086721024319e-05,-2.855252446819611e-06,-0.05282258591935038,0.26344379018555664,-2.855995099118056e-09,3.383180459025295e-08,1.315899250226548e-11,0.06586066478425404,0.0658607098192229,0.06586122921194155,0.06586118637013814
0.7500000000000004,2.2603213070187e-05,1.9321876504852455e-06,0.03864599785818096,0.0,0.0,0.0,2.2648238007623515e-06,1.6855722458343064e-07,-0.031145044202764684,5.822808018678221e-07,-6.883919218494294e-06,-1.032144235853385e-08,2.6443280107914585e-07,-3.112599272843922e-06,0.0,-3.053459886659888e-05,-2.594085778586421e-06,-0.04932681355075558,0.26353817604041857,-2.7453491016514276e-09,3.2511417634735716e-08,1.3218714356555655e-11,0.06588427225342688,0.06588431559112648,0.06588481466522284,0.06588477353064237
0.7600000000000005,2.2622275661553034e-05,1.933569908721986e-06,0.03833208981654854,0.0,0.0,0.0,1.5438738851006002e-06,1.0757046438250555e-07,-0.031636555345497565,6.138908410178931e-07,-7.257303681669326e-06,-1.066348296884638e-08,2.3659108083661177e-07,-2.783637163950095e-06,0.0,-2.730748057835043e-05,-2.3209585030071615e-06,-0.04594818279247817,0.2636293990715952,-2.5955191191291235e-09,3.0727942470303566e-08,1.323528812427105e-11,0.06590709288210853,0.06590713391611261,0.06590760555074837,0.06590756672262571
0.7700000000000005,2.2634034643101315e-05,1.934334312199186e-06,0.038013435853555703,0.0,0.0,0.0,8.062489805425536e-07,4.516760882448335e-08,-0.03209422896109528,6.338072710604769e-07,-7.492187169473431e-06,-1.0964671281203171e-08,2.080399425381653e-07,-2.4463559216343198e-06,0.0,-2.3998751591232677e-05,-2.0408718362994017e-06,-0.04268354549661954,0.26371754427904587,-2.4124334244862563e-09,2.8551649881811545e-08,1.3209535162542727e-11,0.06592914733410794,0.06592918554926296,0.06592962370462035,0.06592958769105461
0.7800000000000005,2.2638386440992625e-05,1.9344720359900775e-06,0.03769036863016694,0.0,0.0,0.0,6.445118016306254e-08,-1.7595327903098668e-08,-0.03251920791507463,6.425739795213434e-07,-7.595050701013664e-06,-1.1224885575932127e-08,1.7926294175602744e-07,-2.106480948789719e-06,0.0,-2.0664578107627142e-05,-1.7585694586266294e-06,-0.039529827175452725,0.2638026946739259,-2.2020893379164054e-09,2.6053609631514517e-08,1.3142400487631293e-11,0.06595045576935091,0.06595049074284848,0.06595089047241198,0.06595085768931455
0.7900000000000005,2.263534827133817e-05,1.933984459464829e-06,0.03736320953231465,0.0,0.0,0.0,-6.698881137621626e-07,-7.973557490241663e-08,-0.03291260434606731,6.408860722533565e-07,-7.5741620029429944e-06,-1.1444142190724995e-08,1.5071102440680045e-07,-1.7693493305070972e-06,0.0,-1.7357316932274624e-05,-1.4784751494307125e-06,-0.036484025511146684,0.2638849313188225,-1.970445034206588e-09,2.3304409664436218e-08,1.3034947791502214e-11,0.06597103786462356,0.06597106926540823,0.06597142670854202,0.0659713974802487
0.8000000000000005,2.262504874298987e-05,1.9328823753875644e-06,0.03703226897462534,0.0,0.0,0.0,-1.3861414517401898e-06,-1.403548935910712e-07,-0.033275500374573275,6.295649761784787e-07,-7.439280430593284e-06,-1.1622591796583337e-08,1.2279727170829415e-07,-1.4398478425953139e-06,0.0,-1.4124907335860029e-05,-1.2046412354583658e-06,-0.03354320888752094,0.2639643333673935,-1.7233210909445494e-09,2.037299055910634e-08,1.2888351059670324e-11,0.06599091283320566,0.06599094041986711,0.06599125277646181,0.06599122733785892
0.8100000000000005,2.2607717271369417e-05,1.9311850982491892e-06,0.03669784669712531,0.0,0.0,0.0,-2.0747899299095247e-06,-1.9864844673342086e-07,-0.03360894879828546,6.095334798633434e-07,-7.201361230123283e-06,-1.1760515126087043e-08,9.589274546751638e-08,-1.1223640020019993e-06,0.0,-1.1010390859639615e-05,-9.407078330363358e-07,-0.03070451494392204,0.2640409781034097,-1.4663125718973114e-09,1.7325605498985675e-08,1.2703888075362864e-11,0.06601009944330781,0.06601012306062014,0.06601038854973967,0.06601036704974209
0.8200000000000005,2.2583672587425933e-05,1.9289194958178217e-06,0.03636023205505951,0.0,0.0,0.0,-2.7274997105583664e-06,-2.5391129753992725e-07,-0.03391397377411948,5.81791143316834e-07,-6.872264248476906e-06,-1.1858318278289105e-08,7.032341305782445e-08,-8.207499114343212e-07,0.0,-8.05155663117069e-06,-6.89872682097258e-07,-0.027965149151289892,0.26411494097919663,-1.204712350177817e-09,1.4224913002636452e-08,1.2482932815782899e-11,0.06602861603525115,0.06602863560953173,0.06602885341410274,0.06602883592031102
0.8300000000000005,2.25533106176127e-05,1.926118967201354e-06,0.03601970430195583,0.0,0.0,0.0,-3.337171504409457e-06,-3.055426254845943e-07,-0.03419157148708875,5.473904660733749e-07,-6.464471695514395e-06,-1.191652771474758e-08,4.636811459333456e-08,-5.382984491344417e-07,0.0,-5.280707786008873e-06,-4.548712041606121e-07,-0.025322383410446236,0.2641862956534776,-9.434459564848024e-10,1.1129206813627608e-08,1.2226948437726417e-11,0.06604648053735344,0.06604649607081901,0.06604666627047297,0.0660466527748322
0.8400000000000005,2.251709199849467e-05,1.922822389686146e-06,0.03567653286606556,0.0,0.0,0.0,-3.897964426872558e-06,-3.5304777752413937e-07,-0.034442710806169646,5.074141571555976e-07,-5.990819023425586e-06,-1.1935785044254402e-08,2.4257520014598514e-08,-2.7773118019558513e-07,0.0,-2.72454287771869e-06,-2.3796627134321143e-07,-0.022773554672616436,0.26425511402861546,-6.870181647337988e-10,8.09178465294824e-09,1.1937479132951827e-11,0.06606371048050644,0.06606372204480662,0.06606384553901133,0.06606383596429106
0.8500000000000005,2.2475529473815504e-05,1.9190730552884534e-06,0.03533097762030953,0.0,0.0,0.0,-4.405295963402531e-06,-3.9603830072413e-07,-0.03466833392730722,4.629538029740736e-07,-5.464242424969053e-06,-1.1916841676815768e-08,4.174011138169798e-09,-4.119721622044473e-08,0.0,-4.041446911225628e-07,-4.094704926544572e-08,-0.020316063582164007,0.26432146628725595,-4.3947121925377596e-10,5.1604550126367065e-09,1.1616142145346662e-11,0.06608032301145242,0.06608033074055997,0.06608040916416369,0.06608040337107987
0.8600000000000005,2.242917540312244e-05,1.9149176163784484e-06,0.03498328914585758,0.0,0.0,0.0,-4.855820045439157e-06,-4.3423012483903644e-07,-0.03486935700371475,4.1509018067528083e-07,-4.897545875788211e-06,-1.1860553407682909e-08,-1.374758677024853e-08,1.6971787376819626e-07,0.0,1.6649323416660053e-06,1.3486382621613807e-07,-0.017947373141500106,0.2643854209283731,-2.0435443195678643e-10,2.3771789086006976e-09,1.1264621767809119e-11,0.06609633490478524,0.06609633898741808,0.0660963746206828,0.06609637241548696
0.8700000000000006,2.2378609589937432e-05,1.9104050579584923e-06,0.03463370898946778,0.0,0.0,0.0,-5.247385448127355e-06,-4.674400811518005e-07,-0.03504667076362487,3.6487541562623376e-07,-4.303190068008787e-06,-1.1767874977583197e-08,-2.9418507657750745e-08,3.539740963944352e-07,0.0,3.4724858856294096e-06,2.885955601225348e-07,-0.01566500739810553,0.2644470448027172,1.5295235555251717e-11,-2.221585335063134e-10,1.0884660883760255e-11,0.0661117625737192,0.06611176324546297,0.0661117589205843,0.06611176006295072
0.8800000000000006,2.232442761453446e-05,1.9055857122450253e-06,0.03428246991471002,0.0,0.0,0.0,-5.578976875212993e-06,-4.955809569592749e-07,-0.03520114111565366,3.133171337001846e-07,-3.69310501239031e-06,-1.1639854632105014e-08,-4.2793871527417235e-08,5.110510790394954e-07,0.0,5.01341108537745e-06,4.198078796839631e-07,-0.013466550153580448,0.2645064031476701,2.1696223379508713e-10,-2.607853608956274e-09,1.0478053520193776e-11,0.06612662207968457,0.06612661961497522,0.06612657862097931,0.06612658283203099
0.8900000000000006,2.2267229832182466e-05,1.9005103291631444e-06,0.033929796147197,0.0,0.0,0.0,-5.8506411971594215e-06,-5.186552936440486e-07,-0.03533360974194068,2.613647123396657e-07,-3.078527533459486e-06,-1.1477628691463107e-08,-5.386992953040078e-08,6.409152434508846e-07,0.0,6.287378538253178e-06,5.284640086932317e-07,-0.011349643694623796,0.2645635596215079,3.9865181509180235e-10,-4.756375069516735e-09,1.004664030704858e-11,0.0661409291408199,0.06614092384493511,0.066140849832714,0.0661408568030389
0.9000000000000006,2.220761117276274e-05,1.895229214258738e-06,0.03357590361394413,0.0,0.0,0.0,-6.06340135836258e-06,-5.367481405421885e-07,-0.0354448946792318,2.098976898193952e-07,-2.4698643545258727e-06,-1.1282416132533331e-08,-6.268082353660008e-08,7.43981249454143e-07,0.0,7.298456057145143e-06,6.148988788940469e-07,-0.009311987545821382,0.2646185763370758,5.588805787965078e-10,-6.650250407795463e-09,9.592298763714415e-12,0.06615469913944357,0.06615469134063907,0.06615458822973608,0.06615459762725709
0.9100000000000006,2.2146151852461254e-05,1.8897914434064522e-06,0.0332210001769779,0.0,0.0,0.0,-6.219160471724129e-06,-5.500189770779566e-07,-0.03553579088807272,1.5971635035165653e-07,-1.8765809738689604e-06,-1.1055513169397079e-08,-6.929495673951838e-08,8.210688537760908e-07,0.0,8.054685455543452e-06,6.797835256146754e-07,-0.0073513372441096625,0.2646715138948785,6.966590570891153e-10,-8.277858007193233e-09,9.116937716421215e-12,0.06616794712859385,0.06616793717050705,0.06616780905910055,0.06616782053667702
0.9200000000000006,2.2083409083225023e-05,1.8842441615812165e-06,0.032865285861310996,0.0,0.0,0.0,-6.320598577696584e-06,-5.586930122226761e-07,-0.035607070810283456,1.1153446398421652e-07,-1.307116075761546e-06,-1.0798287818579995e-08,-7.38110704892851e-08,8.733563124089815e-07,0.0,8.567625424732109e-06,7.240866014998868e-07,-0.0054655031347656535,0.26472243141558915,8.114673140412573e-10,-9.633136580781817e-09,8.622493265099736e-12,0.06618068783773359,0.06618067607216221,0.06618052715151984,0.0661805403541735
0.9300000000000006,2.2019909841271745e-05,1.8786319709015474e-06,0.03250895307740029,0.0,0.0,0.0,-6.371064464554734e-06,-5.630520636053061e-07,-0.035659484914885145,6.597412517883844e-08,-7.688208047599783e-07,-1.0512174434628237e-08,-7.635411966028617e-08,9.023314203212774e-07,0.0,8.851871233351732e-06,7.490339138674073e-07,-0.0036523491887607284,0.2647713865719823,9.032245518286086e-10,-1.0715223733248785e-08,8.110919137080877e-12,0.06619293567771971,0.06619292245786733,0.06619275693236149,0.06619277150403377
0.9400000000000006,2.1956144732522223e-05,1.8729964111755462e-06,0.03215218683820242,0.0,0.0,0.0,-6.374464831741522e-06,-5.63425208956462e-07,-0.03569376223265227,2.3562602757497984e-08,-2.679218624832859e-07,-1.0198668193858253e-08,-7.707103462663715e-08,9.097412317601271e-07,0.0,8.924561483566847e-06,7.560668496873105e-07,-0.0019097918413018278,0.2648184356202945,9.722537423518525e-10,-1.1528035735217435e-08,7.584182449867097e-12,0.06620470474513891,0.06620469041940426,0.0662045124329931,0.06620452802275822
0.9500000000000006,2.189256297070707e-05,1.8673755343125807e-06,0.03179516497093988,0.0,0.0,0.0,-6.3351529335283065e-06,-5.601793904076237e-07,-0.0357106108794633,-1.52689131839222e-08,1.9049293441163952e-07,-9.85931951518797e-09,-7.612645252164682e-08,8.975414400857305e-07,0.0,8.804881527241017e-06,7.468004992373554e-07,-0.00023579885137625656,0.2648636334310177,1.0192423057915044e-09,-1.2079800567949609e-08,7.044257079973611e-12,0.06621600882611196,0.06621599373248256,0.06621580730237543,0.06621582357004775
0.9600000000000006,2.1829568463355087e-05,1.8618035722281197e-06,0.03143805832368858,0.0,0.0,0.0,-6.257818670882744e-06,-5.53710137915999e-07,-0.03571071856862485,-5.018480472106833e-08,6.024682671179668e-07,-9.495728409134808e-09,-7.369849408820409e-08,8.678463202806084e-07,0.0,8.51357240195277e-06,7.229822270052822e-07,0.0013716118179007974,0.2649070335191317,1.045199829483135e-09,-1.2382556130977237e-08,6.4931175283731285e-12,0.06622686139966681,0.06622684586076259,0.06622665481880588,0.06622667143989641
0.9700000000000006,2.1767516982123032e-05,1.856310696284891e-06,0.03108103096689656,0.0,0.0,0.0,-6.147381910324606e-06,-5.44432562161555e-07,-0.03569475311234315,-8.094291582394222e-08,9.651559507059985e-07,-9.10953874957231e-09,-6.997465527587677e-08,8.228800522477064e-07,0.0,8.07245331255e-06,6.864513682563512e-07,0.0029143730983380856,0.2649486880737794,1.0514137983132614e-09,-1.2451625087179897e-08,5.932734779941996e-12,0.06623727564077744,0.06623725995957513,0.06623706790171767,0.06623708457170917
0.9800000000000006,2.1706714377148225e-05,1.8509228648951187e-06,0.03072424038994122,0.0,0.0,0.0,-6.008890604576421e-06,-5.327727500771469e-07,-0.035663362912517926,-1.0739100873755516e-07,1.2767726158353743e-06,-8.702432473532923e-09,-6.514787499457677e-08,7.649301509847596e-07,0.0,7.503964781160492e-06,6.391006536967982e-07,0.004394369895336203,0.26498864798739163,1.0394042774719323e-09,-1.2305077246375591e-08,5.365066959193228e-12,0.06624726442316131,0.06624724887941522,0.06624705912344557,0.06624707556136954
0.9900000000000007,2.164741578042134e-05,1.8456617546666646e-06,0.030367837692831186,0.0,0.0,0.0,-5.847425075729878e-06,-5.191596781276502e-07,-0.035617177441033834,-1.2946196770461612e-07,1.5365425801654445e-06,-8.276123713370892e-09,-5.9412832277379656e-08,6.963036328649583e-07,0.0,6.830738638405242e-06,5.828398846410945e-07,0.00581344014639501,0.26502696288426775,1.0108783705408385e-09,-1.1963189766775044e-08,4.792057187074316e-12,0.06625684032192201,0.0662568251692852,0.06625664072087374,0.06625665667218679
1.0000000000000007,2.1589825730665165e-05,1.8405447694171077e-06,0.030011967773156827,0.0,0.0,2.496005207925857e-32,-5.668009601967468e-06,-5.040177399321843e-07,-0.03555680770972342,-1.4716793708953016e-07,1.744628128222585e-06,-7.832352879706841e-09,-5.296251771137379e-08,6.192864476304745e-07,0.0,6.075200051254955e-06,5.195622987485769e-07,0.007173375859688275,0.2650636811486179,9.676852977887146e-10,-1.1447914540660182e-08,4.215625917998716e-12,0.06626601561611753,0.06626600107995359,0.06626582460688923,0.06626583984565754
1.0100000000000007,2.1534099141900358e-05,1.835585120507089e-06,0.029656769508391932,0.0,0.0,5.615625000000757e-06,-5.475532227861222e-06,-4.877599661853161e-07,-0.035482846730175814,-1.6059358355906966e-07,1.9020494490862778e-06,-7.3728807148913505e-09,-4.59851155302944e-08,5.361066052665826e-07,0.0,5.259205797665176e-06,4.5111398335218806e-07,0.012989944445439855,0.26522072850051004,9.117727639110498e-10,-1.0782361309530323e-08,3.6376655281571816e-12,0.06630527192843559,0.06630525820430112,0.06630509201868061,0.06630510634909272
1.0200000000000007,2.1480343489071724e-05,1.83079201007535e-06,0.029302601625610544,0.0,0.0,2.242500000000153e-05,-5.27458117485221e-06,-4.707741925095061e-07,-0.03535073247473832,-1.6988867119299703e-07,2.0105964707344343e-06,-6.8994823377568735e-09,-3.8657640848235945e-08,4.488589344210392e-07,0.0,4.403306146670394e-06,3.7923145672119464e-07,0.01859713508370614,0.2653721226478003,8.451614240860459e-10,-9.990494813697645e-09,3.060036435859582e-12,0.06634311388565037,0.06634310113816999,0.06634294718324671,0.06634296044073323
1.0300000000000007,2.1428621210234588e-05,1.8261708327021182e-06,0.028950035154358057,0.0,0.0,5.037187500000232e-05,-5.069567243284406e-06,-4.534333883095394e-07,-0.03516256553176262,-1.7526013440819926e-07,2.0727347820534057e-06,-6.41394131079331e-09,-3.115065813719829e-08,3.595610097419675e-07,0.0,3.527293505568701e-06,3.055879563259152e-07,0.024000527369939573,0.2655180142395628,7.698735823534107e-10,-9.096290595183775e-09,2.4845593691957424e-12,0.06637957934993798,0.06637956771277566,0.06637942756279677,0.06637943961405238
1.0400000000000007,2.137895217502189e-05,1.8217233827355367e-06,0.028599620398940366,0.0,0.0,8.940000000000314e-05,-4.864585363729108e-06,-4.3608395669497987e-07,-0.03492039035751298,-1.769637930745582e-07,2.091507353832229e-06,-5.918043755031688e-09,-2.362289414155449e-08,2.700894168462061e-07,0.0,2.649577179261282e-06,2.3174059152864958e-07,0.0292055696348206,0.26565855038072533,6.879095003462499e-10,-8.123454648060225e-09,1.913012149439234e-12,0.0664147052951967,0.06641469487139133,0.06641456973574826,0.06641458047838904
1.0500000000000007,2.1331317067920414e-05,1.8174481389886034e-06,0.02825188749327438,0.0,0.0,0.00013945312500000394,-4.66337130499496e-06,-4.190420646569608e-07,-0.034626196570795,-1.7529591198530378e-07,2.0704344533566547e-06,-5.4135725435547765e-09,-1.6219526902869568e-08,1.8215958321599854e-07,0.0,1.7869855113489459e-06,1.5911355891715048e-07,0.034217581625945626,0.2657938747044743,6.012168703339189e-10,-7.095062251748571e-09,1.3471244649372878e-12,0.06644852782213546,0.06644851868490555,0.06644840941784129,0.066448418779592
1.0600000000000007,2.128566115583577e-05,1.813340582031469e-06,0.027907346942910066,0.0,0.0,0.00020047500000000478,-4.46926808288106e-06,-4.0259079171530367e-07,-0.03428192022397863,-1.7058480299297615e-07,2.01341410021236e-06,-4.902301603413933e-09,-9.070847073289603e-09,9.731002372197512e-08,0.0,9.54611332712576e-07,8.898500978897101e-08,0.03904175715281956,0.26592412744366906,5.11662281947032e-10,-6.033220341740193e-09,7.885727084533598e-13,0.06648108217331102,0.06648107436729801,0.06648098148280909,0.06648098942025094
1.0700000000000007,2.124189834392363e-05,1.80939353597612e-06,0.02756649015445954,0.0,0.0,0.00027240937500000564,-4.285201848111449e-06,-3.869780786143174e-07,-0.033889445050521085,-1.6318258298109198e-07,1.924624402502178e-06,-4.385990350333798e-09,-2.291283851897494e-09,1.6890907948038264e-08,0.0,1.6569980697025538e-07,2.2477494587114418e-08,0.043683166694516745,0.26604944550124826,4.2100618804120665e-10,-4.958771681718865e-09,2.3897627927591644e-13,0.0665124027482614,0.06651239629115785,0.06651231998244801,0.066512326479381
1.0800000000000007,2.119991542660579e-05,1.8055975268959945e-06,0.0272297899526676,0.0,0.0,0.00035520000000000647,-4.113666888989261e-06,-3.724154455668762e-07,-0.03345060368911833,-1.5345721098151607e-07,1.80842923222377e-06,-3.8663782835457815e-09,4.021217686060323e-09,-5.794320932655838e-08,0.0,-5.684228834935378e-07,-3.9448145500251776e-08,0.04814675996946946,0.26616996251961406,3.308817431998167e-10,-3.89104463623825e-09,-3.00106420231185e-13,0.0665425231187647,0.0665425180032675,0.06654245816605117,0.06654246323153068
1.0900000000000007,2.1159576444983024e-05,1.8019411503829606e-06,0.026897701085356638,0.0,0.0,0.0004487906250000074,-3.956719257561108e-06,-3.590774388258847e-07,-0.032967178884634386,-1.417849162551443e-07,1.6692885622035065e-06,-3.345179763201378e-09,9.785486049676984e-09,-1.2623671166765874e-07,0.0,-1.2383821414597324e-06,-9.599561814733122e-08,0.05243736846693302,0.2662858089489809,2.4277753552268074e-10,-2.8476494334012496e-09,-8.271832387963596e-13,0.06657147604422632,0.0665714722402554,0.06657142849919603,0.06657143216530315
1.1000000000000008,2.112072706732498e-05,1.7984114412033261e-06,0.02657066071647742,0.0,0.0,0.0005531250000000083,-3.81597841997669e-06,-3.4710175521928216e-07,-0.03244090466597743,-1.2854311376289235e-07,1.5116746044776407e-06,-2.824078988591906e-09,1.4937102003709494e-08,-1.872325658203241e-07,0.0,-1.8367514706973794e-06,-1.4653297065639013e-07,0.056559707939761714,0.2663971121146801,1.5802421367097077e-10,-1.84432050707747e-09,-1.3408294232308684e-12,0.06659929348718961,0.06659929094431209,0.06659926268188619,0.0665992650012922
1.1100000000000008,2.108319891577101e-05,1.7949942385572014e-06,0.026249088907495194,0.0,0.0,0.0006681468750000092,-3.6926362428467458e-06,-3.3658998675284296e-07,-0.03187346750110857,-1.1410388724517096e-07,1.3399946977271338e-06,-2.3047251948761305e-09,1.942809237936267e-08,-2.4036859647131043e-07,0.0,-2.3580159313835556e-06,-1.905895862415478e-07,0.06051838085820624,0.2665039962834126,7.778492277669375e-11,-8.948038284932067e-10,-1.839693549412304e-12,0.06662600662895897,0.06662600527896008,0.0666259916660551,0.06662599270943845
1.1200000000000008,2.1046813769621907e-05,1.7916745410553564e-06,0.025933389087338964,0.0,0.0,0.0007938000000000101,-3.5874725577150443e-06,-3.2760892147780764e-07,-0.03126650742938537,-9.882810388378153e-08,1.1585216981478942e-06,-1.788728080968844e-09,2.3226367721962696e-08,-2.852707322061181e-07,0.0,-2.7985058829420187e-06,-2.2785066735245407e-07,0.06431787882451652,0.2666065827284422,3.049357126938945e-12,-1.0787425157053192e-11,-2.3224976081694317e-12,0.06665164588531805,0.06665164564486342,0.06665164567244448,0.06665164552581622
1.1300000000000008,2.1011387583451115e-05,1.788436846188639e-06,0.025623948511139368,0.0,0.0,0.0009300281250000111,-3.5008764948970776e-06,-3.2019233250118675e-07,-0.030621619171457167,-8.306020842034223e-08,9.713324380216625e-07,-1.2776534800654294e-09,2.6314934518233074e-08,-3.2174358797850703e-07,0.0,-3.156304598069154e-06,-2.581495076238665e-07,0.06796258494820188,0.2667049897937282,-6.536871812644733e-11,7.981273569703723e-10,-2.788041869351554e-12,0.06667624092232295,0.06667624169565874,0.06667625420687795,0.06667625296886856
1.1400000000000008,2.0976734266529594e-05,1.785265469761422e-06,0.0253211387079786,0.0,0.0,0.001076775000000012,-3.4328727452179826e-06,-3.14343184226391e-07,-0.029940353216941173,-6.712372909236125e-08,7.822546321408943e-07,-7.730192793242896e-10,2.8690914093230492e-08,-3.497587651779523e-07,0.0,-3.4311334863957124e-06,-2.8145786725459113e-07,0.07145677618186139,0.2667993329569925,-1.26830765863981e-10,1.524416651014248e-09,-3.2352052799930605e-12,0.06669982067214512,0.06669982235378726,0.06669984607595153,0.06669984385510858
1.1500000000000008,2.0942669178564683e-05,1.782144841477527e-06,0.025025315917873332,0.0,0.0,0.001233984375000013,-3.3831518926598417e-06,-3.1003618357408745e-07,-0.029224216890121765,-5.13175129734021e-08,5.9482243703185e-07,-2.7629159471444883e-10,3.036440095007717e-08,-3.6944125828123634e-07,0.0,-3.6242187437389285e-06,-2.97874773320257e-07,0.07480462561755745,0.26688972489172164,-1.80869846570958e-10,2.162590295650126e-09,-3.662949304150282e-12,0.0667224133489368,0.06672241582630409,0.06672244940216976,0.06672244631431098
