t,x,y,z,x_ref,y_ref,z_ref,vx,vy,vz,roll,pitch,yaw,roll_ref,pitch_ref,yaw_ref,acc_x_cmd,acc_y_cmd,acc_z_cmd,thrust_total,tau_x,tau_y,tau_z,f1,f2,f3,f4
0.0,0.0,0.0,0.0,0.0,0.0,0.0,0.0,0.0,0.0,0.0,0.0,0.0,0.0,0.0,0.0,0.0,0.0,0.0,0.26487,0.0,0.0,0.0,0.06621749999999998,0.06621750000000001,0.06621749999999998,0.06621750000000001
0.01,3.5196955829696687e-07,1.999057075459891e-08,0.001180147098580911,0.0,0.0,0.0,4.080439944710175e-05,4.961398853548979e-06,0.19346085275565394,0.0,0.0,0.0,2.2778069197948293e-06,-1.6671964206808268e-05,0.0,-0.0001635519688687891,-2.2345285883187275e-05,-0.876002514053915,0.2412179321205443,1.025013113986617e-08,-7.502383893132068e-08,0.0,0.06030513898375199,0.060304981289426796,0.06030382707652013,0.06030398477084538
0.02,6.175936357992974e-07,6.006372866166378e-08,0.0033918131391396924,0.0,0.0,0.0,1.7806749833884818e-05,1.666607461600749e-06,0.23169853680112265,-2.370718024800446e-06,5.619890092121651e-05,-6.979517843117132e-10,7.703154046311876e-07,-7.320460070290377e-06,0.0,-7.18137132895486e-05,-7.556794119431951e-06,-1.0582457560450944,0.23629736496059744,2.526203938429152e-07,-2.534963404898862e-06,-2.9491914638351686e-11,0.05909578542127714,0.05909189649602003,0.05905289951668111,0.059056783526619167
0.03,7.654218373728921e-07,7.375794432542516e-08,0.005666920121272477,0.0,0.0,0.0,1.9547012821797736e-05,1.7659856045557523e-06,0.22217737336813081,-8.042130800947063e-06,9.776249927381132e-05,5.54875629837876e-10,8.172278560254882e-07,-8.044363102211538e-06,0.0,-7.891520203269519e-05,-8.01700526761004e-06,-1.025866012714442,0.23717161879776433,1.2271304452415444e-07,-1.3751286574491185e-06,-1.4905679689921015e-11,0.05930442717975701,0.059302538044624376,0.0592813834612651,0.05928327011211784
0.04,1.010922153064051e-06,9.559343592879945e-08,0.007837005192791187,0.0,0.0,0.0,2.9636657928511167e-05,2.6082260743388634e-06,0.2118408684179581,-9.31123567657665e-06,0.00011163210365024943,1.9947416287792734e-09,1.2056912434920737e-06,-1.218216185111677e-05,0.0,-0.00011950700775945552,-1.1827831098657243e-05,-0.9893341317676508,0.23815797993652732,7.328672584530636e-08,-8.573788876338909e-07,-1.4111665016513777e-11,0.05954665453837539,0.0595455258743134,0.059532336605860325,0.0595334629179782
0.05,1.359281851111108e-06,1.2601532047189082e-07,0.00990558763159519,0.0,0.0,0.0,4.0050773713622614e-05,3.477283161915844e-06,0.20187674763688107,-9.796787474290505e-06,0.00011733891911421482,3.4317880101964275e-09,1.6072873377237098e-06,-1.646222350795576e-05,0.0,-0.000161494412613046,-1.5767488783069595e-05,-0.9540110674713027,0.23911170283584487,5.934645042290446e-08,-7.013678808380438e-07,-1.5179974996439334e-11,0.05978377799016217,0.05978286370285009,0.05977207469275815,0.059772986450074464
0.060000000000000005,1.8119536473638774e-06,1.651362813963991e-07,0.011876327937088628,0.0,0.0,0.0,5.045113384757727e-05,4.3439610912101114e-06,0.19227234994929074,-9.873168281609818e-06,0.0001183851285114274,4.868203377752133e-09,2.008634493147001e-06,-2.0746777915933206e-05,0.0,-0.00020352589135530475,-1.9704704377772082e-05,-0.919856683282416,0.24003387124511594,5.078668565812095e-08,-6.000657143657823e-07,-1.6267293673637745e-11,0.06001347504600613,0.06001269235677285,0.060003461932159614,0.06000424191017734
0.07,2.367434966816563e-06,2.1281664462868257e-07,0.013752762221029233,0.0,0.0,0.0,6.0572308368930606e-05,5.185746550155438e-06,0.18301545837750746,-9.672665364945252e-06,0.00011617731177681636,6.291196806710438e-09,2.399391976360522e-06,-2.4927451243037528e-05,0.0,-0.00024453829669419816,-2.3538035288096722e-05,-0.886832268915518,0.24092553037645775,4.2970507425020414e-08,-5.064523039655348e-07,-1.7314772636575886e-11,0.06023560964488167,0.06023494711725437,0.060227156986244895,0.060227816628076816
0.08,3.021766694821407e-06,2.6870864757457616e-07,0.015538306561779026,0.0,0.0,0.0,7.018659356701396e-05,5.983354726303542e-06,0.17409428273180316,-9.242252330707612e-06,0.00011125266568010979,7.690568193395822e-09,2.770679865806502e-06,-2.8911014539055674e-05,0.0,-0.0002836170526281362,-2.7180369483561785e-05,-0.8549004824772977,0.24178768847976156,3.528305711647065e-08,-4.145306157378477e-07,-1.83117407960422e-11,0.06045038298810538,0.06044983864586368,0.060443462777753774,0.06044400406803873
0.09,3.768879171359777e-06,3.3228561851052804e-07,0.01723626118943081,0.0,0.0,0.0,7.909937390839278e-05,6.720268334373507e-06,0.1654974430938935,-8.616117741447799e-06,0.0001040181213523682,9.056044205072782e-09,3.1148704222493153e-06,-3.261752608015932e-05,0.0,-0.0003199779308463629,-3.0556878842265783e-05,-0.8240252953939025,0.24262131834592382,2.7735184442806212e-08,-3.246483841322762e-07,-1.924891099571221e-11,0.06065804103135409,0.06065761273213293,0.06065261974568371,0.060653044836753094
0.09999999999999999,4.600920345343532e-06,4.028693984664763e-07,0.01884981450955396,0.0,0.0,0.0,8.714874362722112e-05,7.382704982359324e-06,0.15721395405503918,-7.82662877518033e-06,9.486102319255181e-05,1.0377126463555524e-08,3.425575774634058e-06,-3.598020885188184e-05,0.0,-0.00035296584883696085,-3.360489834916011e-05,-0.7941719399916246,0.24342735872293625,2.0424973275631735e-08,-2.3800080751367683e-07,-2.011703349404107e-11,0.06085882840956523,0.06085851250278772,0.06085485262832232,0.06085516518226098
0.10999999999999999,5.508581981408553e-06,4.796576663098217e-07,0.020382046972876162,0.0,0.0,0.0,9.420527376373756e-05,7.959608468657559e-06,0.14923320966290632,-6.905592161495046e-06,8.416092241855478e-05,1.1643674598489995e-08,3.697646574103297e-06,-3.8945387149570676e-05,0.0,-0.0003820542479372884,-3.6273912891953345e-05,-0.7653068595583088,0.24420671566261393,1.3451973524159368e-08,-1.557561579914365e-07,-2.0907447944417252e-11,0.06105298138780879,0.06105277269208266,0.06105037818578547,0.061050583396937
0.11999999999999998,6.4814213881469335e-06,5.617510085262533e-07,0.02183593479779462,0.0,0.0,0.0,0.00010017132323835493,8.442603612315978e-06,0.14154496903850158,-5.88402677881974e-06,7.228635612614938e-05,1.284648182060109e-08,3.927153895364102e-06,-4.1472236826927554e-05,0.0,-0.0004068426432721593,-3.852537971352184e-05,-0.7373976607431123,0.24496026380417404,6.903348801923729e-09,-7.891632331289548e-08,-2.1612654891249493e-11,0.06124072700289474,0.06124061899647402,0.06123940670024682,0.06123951110455846
0.12999999999999998,7.508173754566437e-06,6.481793269012704e-07,0.023214353552239112,0.0,0.0,0.0,0.00010497985480961796,8.825909285688107e-06,0.13413934262765909,-4.791751085301249e-06,5.958991344738758e-05,1.3977704092314977e-08,4.111351900729122e-06,-4.353233275283486e-05,0.0,-0.00042705218430531,-4.033236214615269e-05,-0.7104130681647658,0.2456888475985873,8.516377588890511e-10,-8.296504863417118e-09,-2.2226732407104633e-11,0.06142228319608853,0.06142226824174149,0.061422142455432795,0.06142215370532449
0.13999999999999999,8.577050380342253e-06,7.379271819404833e-07,0.024520081601065672,0.0,0.0,0.0,0.00010859280851774568,9.106213335464719e-06,0.12700677905386648,-3.6569933511046937e-06,4.640370531761189e-05,1.5031124711123414e-08,4.248622918698745e-06,-4.510901446812516e-05,0.0,-0.00044251943193230784,-4.167899083243469e-05,-0.6843228811073012,0.24639328247703027,-4.645436840519674e-09,5.54737070908931e-08,-2.274557160905042e-11,0.061597859112036385,0.0615979286848312,0.06159878402194302,0.06159871065821966
0.15,9.676018711631976e-06,8.299577168120904e-07,0.025755803424837766,0.0,0.0,0.0,0.00011099910087412608,9.28251467047001e-06,0.12013805254126433,-2.5060582831544094e-06,3.303557135875446e-05,1.600226447170631e-08,4.338407323963968e-06,-4.619659747936337e-05,0.0,-0.0004531886212725547,-4.2559775848086524e-05,-0.6590979321899432,0.24707435596646957,-9.54464655185527e-09,1.119436693079248e-07,-2.316694644779673e-11,0.061767655431400205,0.06176780034153754,0.06176952448241342,0.0617693757111184
0.16,1.0793060793068513e-05,9.23234861367854e-07,0.026924112815549732,0.0,0.0,0.0,0.00011221232042922378,9.355938110103136e-06,0.11352425087853664,-1.3630551136692069e-06,1.976606400806499e-05,1.688835827680964e-08,4.381120755735329e-06,-4.6799458661601446e-05,0.0,-0.0004591026894703102,-4.2978794613763576e-05,-0.6347100479049437,0.2477328287551909,-1.3816688205567081e-08,1.6083224780623978e-07,-2.3490447992567528e-11,0.061931864714212435,0.061932075321109066,0.06193455162092032,0.06193433709894908
0.17,1.1916407450304445e-05,1.0167435719876075e-06,0.02802751595456311,0.0,0.0,0.0,0.00011226818953855754,9.329527610675225e-06,0.1071567638961633,-2.496868790822493e-07,6.846193726904501e-06,1.7688224573501684e-08,4.378061227464499e-06,-4.693102397879912e-05,0.0,-0.00046039334523201937,-4.294878064142674e-05,-0.611132010923725,0.24836943571088774,-1.744543199792347e-08,2.0201636893574314e-07,-2.3717305081238835e-11,0.062090671748243474,0.062090938163062916,0.06209404808364246,0.06209377771593889
0.18000000000000002,1.3034746205283302e-05,1.109507918727882e-06,0.0290684343777595,0.0,0.0,0.0,0.00011122185987996112,9.208023383150629e-06,0.10102727243113649,8.149009705305537e-07,-5.504098333071978e-06,1.8402056447162576e-08,4.331308638834792e-06,-4.661268587307478e-05,0.0,-0.00045727044841486364,-4.2490137746969316e-05,-0.5883375240778079,0.2489848868537534,-2.042701995969849e-08,2.3551799286022086e-07,-2.3850131102844114e-11,0.06224425389940287,0.06224456617373751,0.062248191514984716,0.06224787526562829
0.19000000000000003,1.4137401586115423e-05,1.2006068854787382e-06,0.03004920783266222,0.0,0.0,0.0,0.00010914510596066284,8.997628220250686e-06,0.0951277377547623,1.814215389762261e-06,-1.7096783817411086e-05,1.9031163255152472e-08,4.243619116445758e-06,-4.587267638628552e-05,0.0,-0.000450010955349461,-4.1629903532332886e-05,-0.5663011759266765,0.24957986828686657,-2.276884303280903e-08,2.614898822318198e-07,-2.3892626365902467e-11,0.06239278146166377,0.062393129760504415,0.062397154672821684,0.0623968023918767
0.20000000000000004,1.521448711559614e-05,1.2891878007073005e-06,0.030972097032042258,0.0,0.0,0.0,0.00010612347668626206,8.705768078648085e-06,0.08945039144058557,2.7344574362285735e-06,-2.7775957912421525e-05,1.957768979174865e-08,4.118316489764354e-06,-4.4744920438824115e-05,0.0,-0.0004389476695048646,-4.0400684764588314e-05,-0.5449984078300294,0.2501550430860222,-2.4488423749171138e-08,2.8020051667050943e-07,-2.3849260531153215e-11,0.06253641800414457,0.06253679276168699,0.06254110552630487,0.06254072679388578
0.21000000000000005,1.6257028839327143e-05,1.3744773651862938e-06,0.03183928630830129,0.0,0.0,0.0,0.00010225346020793252,8.340851625172117e-06,0.0839877256507984,3.56451486696932e-06,-3.741747425502116e-05,2.0044336611605465e-08,3.959183059143884e-06,-4.326789176647205e-05,0.0,-0.0004244580182290909,-3.883958581020151e-05,-0.5244054824467788,0.2507110521510359,-2.5612230637014852e-08,2.9201848389190647e-07,-2.3724968601739224e-11,0.06267532071311063,0.06267571277034745,0.062680207339488,0.06267981132808982
0.22000000000000006,1.7257060779970925e-05,1.4557902882838073e-06,0.032652886172713995,0.0,0.0,0.0,9.76397118733001e-05,7.912033066230074e-06,0.07873248382072691,4.295910101365663e-06,-4.592806521672204e-05,2.0434100808630986e-08,3.770351638318547e-06,-4.1483491868926884e-05,0.0,-0.00040695305523417275,-3.698714957190495e-05,-0.5044994535877555,0.2512485150204392,-2.6174449337973836e-08,2.9739665615022833e-07,-2.352487124346306e-11,0.062809640726809,0.06281004145023905,0.06281461874381652,0.06281421409957463
0.23000000000000007,1.820769317377659e-05,1.5325355854549043e-06,0.03341493578341403,0.0,0.0,0.0,9.239238932833795e-05,7.428982148472826e-06,0.0736776517221456,4.922708358560849e-06,-5.3244011644634035e-05,2.075005168629893e-08,3.5562006599704256e-06,-3.9435970013092715e-05,0.0,-0.0003868668658284396,-3.488632847430988e-05,-0.4852581373533597,0.2517680306513816,-2.6215733986704573e-08,2.9685643561793035e-07,-2.3254039430109648e-11,0.06293952346122828,0.0629399248423761,0.0629444938022991,0.06294408854547812
0.24000000000000007,1.910315475599928e-05,1.6042206261679705e-06,0.03412740532582062,0.0,0.0,0.0,8.66246327926686e-05,6.901664757240459e-06,0.06881644888724875,5.441391010219505e-06,-5.932942768223749e-05,2.0995150790045572e-08,3.3212539248156614e-06,-3.717089991731638e-05,0.0,-0.0003646465281888737,-3.258150100244164e-05,-0.4666600844913942,0.25227017816646014,-2.578196076303584e-08,2.9097232501474566e-07,-2.2917308673445978e-11,0.06306510892507382,0.06306550366084833,0.06306998206793195,0.06306958351260604
0.25000000000000006,1.9938810711390392e-05,1.6704530533694165e-06,0.03479219830902634,0.0,0.0,0.0,8.0450222390022e-05,6.3401370581721485e-06,0.06414232037612018,5.850699320973729e-06,-6.417422659613843e-05,2.1172121057177753e-08,3.070086357031153e-06,-3.473422627277358e-05,0.0,-0.00034074275973590884,-3.0117547162475613e-05,-0.448684553914062,0.25275551756911185,-2.49230036267878e-08,2.8035705087588167e-07,-2.2519151486527136e-11,0.06318653202246437,0.06318691357669347,0.0631912286386875,0.06319084333126652
0.26000000000000006,2.0711158194016845e-05,1.730940722593791e-06,0.03541115378149965,0.0,0.0,0.0,7.398143827990207e-05,5.754355636622791e-06,0.059648928871491064,6.151453785516772e-06,-6.779183271137987e-05,2.1283365622211838e-08,2.807236906347264e-06,-3.2171391784294013e-05,0.0,-0.0003156013534039243,-2.753899405126666e-05,-0.4313114873166082,0.25322459042911893,-2.3691550237771486e-08,2.6564743678743387e-07,-2.2063601460090152e-11,0.06330392284208086,0.06330428548883571,0.06330837421111203,0.06330800788709033
0.2700000000000001,2.1417801547878515e-05,1.7854898309139107e-06,0.035986048469298315,0.0,0.0,0.0,6.732714331473192e-05,5.154005598530786e-06,0.055330147085466026,6.346354220450101e-06,-7.021670272439055e-05,2.1330933304576047e-08,2.5371295140424825e-06,-2.952655297955273e-05,0.0,-0.0002896554847294123,-2.4889240532756753e-05,-0.41452148484336937,0.2536779205397026,-2.2141973892880623e-08,2.47491193371789e-07,-2.1554225851023298e-11,0.06341740693173173,0.06341774578129847,0.06342155513430504,0.06342121269236738
0.2800000000000001,2.205740952776635e-05,1.8340014231380582e-06,0.036518598839840676,0.0,0.0,0.0,6.059110213544201e-05,4.548348113663436e-06,0.05118005046373319,6.439765638662224e-06,-7.150171694267681e-05,2.1316525104596895e-08,2.264002840312601e-06,-2.6841890682277884e-05,0.0,-0.00026331894759314606,-2.2209867863466615e-05,-0.3982957817500664,0.2541160145476009,-2.0329275090015837e-08,2.2653476138209716e-07,-2.0994144871273363e-11,0.06352710555752954,0.0635274165660958,0.06353090346578297,0.06353058895819261
0.2900000000000001,2.26296569310722e-05,1.8764664751203248e-06,0.03701046309414091,0.0,0.0,0.0,5.387054510119411e-05,3.946088415350526e-06,0.047192910173559435,6.437494733202584e-06,-7.171549752025514e-05,2.1241534182458662e-08,1.991849237557765e-06,-2.4157018806248218e-05,0.0,-0.00023698035448929504,-1.9540041020441678e-05,-0.38261622601406564,0.2545393625574568,-1.830810409062946e-08,2.0341231425063832e-07,-2.0386083626810056e-11,0.06363313594710479,0.06363341591140437,0.06363654703046388,0.06363626366848375
0.3000000000000001,2.31351531091271e-05,1.9129597619490494e-06,0.037463243090281165,0.0,0.0,0.0,4.7254980295917065e-05,3.3552648266121062e-06,0.043363186362609524,6.346561535276005e-06,-7.09397066469656e-05,2.1107110764039548e-08,1.7243632511321176e-06,-2.1508493031329153e-05,0.0,-0.00021099831663733902,-1.6916003493606075e-05,-0.3674652568470362,0.2549484387117712,-1.6131873549364775e-08,1.7873599765408298e-07,-1.9732445352987073e-11,0.06373561151650337,0.06373585805480295,0.06373860948375265,0.06373835965671223
0.3100000000000001,2.3575359835052092e-05,1.943632722372671e-06,0.03787848620076721,0.0,0.0,0.0,4.082525212401308e-05,2.7831589667266673e-06,0.039685521676322943,6.174970496461108e-06,-6.926637303262699e-05,2.0914243133858436e-08,1.4648997386874658e-06,-1.8929418994837084e-05,0.0,-0.00018569760033935182,-1.437066643652404e-05,-0.3528258840669824,0.2553437017476075,-1.3851968120574202e-08,1.5308745553053097e-07,-1.903540556809127e-11,0.06383464208063105,0.06383485360154914,0.06383721037945647,0.06383699568597084
0.3200000000000001,2.3952500968516186e-05,1.9687055304200236e-06,0.03825768710629505,0.0,0.0,0.0,3.465284074431422e-05,2.236226909501795e-06,0.036154735022233944,5.931484888007194e-06,-6.679529000627122e-05,2.0663846240113726e-08,1.2164415236143831e-06,-1.6449157889637845e-05,0.0,-0.00016136623889734727,-1.1933291346657099e-05,-0.3386816682890099,0.2557255955311693,-1.1517055737250209e-08,1.2701066585191768e-07,-1.8297005732814857e-11,0.06393033404730916,0.0639305097080316,0.06393246524302594,0.0639322865328026
0.3300000000000001,2.4269466281037094e-05,1.988458581123515e-06,0.03860228952834267,0.0,0.0,0.0,2.8799392824964323e-05,1.7200507185627221e-06,0.03276581557023534,5.625408019686978e-06,-6.363152329640239e-05,2.0356850298226325e-08,9.815763390009774e-07,-1.4093125817211266e-05,0.0,-0.00013825356426684253,-9.629263885599589e-06,-0.3250167018964353,0.256094549571308,-9.172503294831297e-09,1.0100608669268498e-07,-1.751924992534323e-11,0.06402279059518044,0.06402293025067828,0.06402448565041102,0.06402434307503826
0.34000000000000014,2.4529711693620278e-05,2.0032235899419583e-06,0.03891368790289417,0.0,0.0,0.0,2.3316470854520438e-05,1.239309478678105e-06,0.029513916978363277,5.266374365934435e-06,-5.988306114312302e-05,1.9994283008091144e-08,7.624826773186883e-07,-1.1882681908972579e-05,0.0,-0.00011656910952702101,-7.4799550644963325e-06,-0.3118155907559479,0.25645097951295986,-6.859897458226676e-09,7.552609023994412e-08,-1.6704188098317358e-11,0.06411211183588089,0.0641122159807492,0.0641133793126147,0.06411327238371507
0.35000000000000014,2.4737158036855823e-05,2.013374495311698e-06,0.039193228997501876,0.0,0.0,0.0,1.8245505525317593e-05,7.977686773812425e-07,0.026394351834225213,4.8641532567506506e-06,-5.565863391739342e-05,1.9577340446629097e-08,5.609240386097558e-07,-9.83509910665478e-06,0.0,-9.64823222362834e-05,-5.5026648187617045e-06,-0.2990634366425221,0.25679528761145076,-4.616669621096851e-09,5.09716430159938e-08,-1.5853989828239363e-11,0.06419839496104068,0.06419846466556137,0.06419925016585049,0.06419917781899823
0.36000000000000015,2.4896090277364052e-05,2.019318341151205e-06,0.039442213473796,0.0,0.0,0.0,1.3617933512841093e-05,3.982865689270937e-07,0.023402586302703553,4.42846735339842e-06,-5.1065724998182074e-05,1.9107443230891648e-08,3.7825096679567443e-07,-7.963610582554557e-06,0.0,-7.812301981486021e-05,-3.7106419842655664e-06,-0.2867458203416276,0.2571278631885546,-2.4758223526360796e-09,2.7690173539572214e-08,-1.4970997801906143e-11,0.06428173437480796,0.0642817712167995,0.06428219846705245,0.06428215912989467
0.37000000000000016,2.501105896892461e-05,2.021486301532467e-06,0.03966189739745997,0.0,0.0,0.0,9.455501299268403e-06,4.28359731341583e-08,0.020534234971049017,3.968827692028443e-06,-4.620878936775145e-05,1.858627605445297e-08,2.1541017997548992e-07,-6.277524079261162e-06,0.0,-6.1582511217552e-05,-2.1131738655595562e-06,-0.2748487853980364,0.25744908307113995,-4.657532927603215e-10,5.974554132594904e-09,-1.405776617356992e-11,0.06436222181269889,0.06436222780665367,0.06436232089435158,0.06436231255743581
0.38000000000000017,2.5086785486821992e-05,2.020324993537402e-06,0.03985349369760309,0.0,0.0,0.0,5.770714512115297e-06,-2.6746017563193215e-07,0.017785055882931586,3.49438664905955e-06,-4.118769130469703e-05,1.801581007801868e-08,7.296003603637484e-08,-4.782395949127632e-06,0.0,-4.691530426094208e-05,-7.157379535168372e-07,-0.26335882248216635,0.25775931201319,1.3898288542921182e-09,-1.393688844720758e-08,-1.3117076690002592e-11,0.06443994644766776,0.06443992397259568,0.06443971065201695,0.06443973094090963
0.3900000000000002,2.5128072394754315e-05,2.0162882069564068e-06,0.04001817357737992,0.0,0.0,0.0,2.567411544624267e-06,-5.32281310306027e-07,0.015150945753441697,3.013809766810215e-06,-3.6096367749414804e-05,1.7398308846467814e-08,-4.890847092441746e-08,-3.4802563663112806e-06,0.0,-3.4141314953513665e-05,4.797920997685353e-07,-0.25226285434643525,0.25805890310193685,3.071902626309098e-09,-3.185942843645568e-08,-1.215194058235199e-11,0.0645149949843617,0.06451494671165961,0.06451445757926842,0.06451450382664713
0.4000000000000002,2.5139720079658824e-05,2.0098291613552067e-06,0.04015706787762781,0.0,0.0,0.0,-1.5856003822069416e-07,-7.52051582864346e-07,0.012627935357436835,2.5351669822037006e-06,-3.102171944297207e-05,1.6736319356389924e-08,-1.503460162693283e-07,-2.36987705634996e-06,0.0,-2.3248493922793106e-05,1.4748944196021107e-06,-0.24154822134555368,0.2583481981488106,4.5660536402833665e-09,-4.7660164472751644e-08,-1.1165583612681863e-11,0.06458745174257462,0.06458738056513026,0.06458664826229596,0.06458671757880977
0.4100000000000002,2.512645057525321e-05,2.0013933825179606e-06,0.04027126839521975,0.0,0.0,0.0,-2.4185856580543845e-06,-9.278739444207643e-07,0.010212185084005978,2.0658434301652337e-06,-2.6042727842883483e-05,1.603265058569898e-08,-2.3181539617751036e-07,-1.4470729270410816e-06,0.0,-1.4195785414273011e-05,2.2741090365013767e-06,-0.23120266749603774,0.2586275280658625,5.8623239750015105e-09,-6.12555176747156e-08,-1.0161419513457016e-11,0.0646573987309477,0.06465730769456315,0.06465636614876848,0.06465645549158315
0.4200000000000002,2.5092839283884886e-05,1.9914122717313535e-06,0.04036182915775934,0.0,0.0,0.0,-4.230465289435307e-06,-1.0614577990273946e-06,0.007899980650180305,1.6124696506263724e-06,-2.1229792132725637e-05,1.529034222449175e-08,-2.940589640650856e-07,-7.050291704331713e-07,0.0,-6.916336161949412e-06,2.88471843747849e-06,-0.22121432705150432,0.258897213228289,6.954999495858662e-09,-7.260811362834624e-08,-9.143012278496549e-12,0.06472491571197819,0.0647248079500683,0.06472369166408397,0.06472379790215856
0.4300000000000002,2.50432551015071e-05,1.980297423115406e-06,0.04042976765617748,0.0,0.0,0.0,-5.617554484093077e-06,-1.1550420325930378e-06,0.005687728967354436,1.1808707171638835e-06,-1.6644277391467047e-05,1.4512626527187649e-08,-3.3806387305902493e-07,-1.3464570948618103e-07,0.0,-1.320874410059436e-06,3.3164065947090345e-06,-0.21157171157151133,0.2591575638236473,7.842343944236834e-09,-8.17231578837242e-08,-8.114034643879485e-12,0.06479008025939526,0.06478995893178044,0.06478870232859792,0.06478882230387369
0.4400000000000002,2.4981809255840982e-05,1.9684357265316354e-06,0.040476066036726766,0.0,0.0,0.0,-6.6078837150054e-06,-1.2113151463835232e-06,0.0035719541541974795,7.760335286747861e-07,-1.2338262188158914e-05,1.3702886170723978e-08,-3.6502591422230383e-07,2.751086714549101e-07,0.0,2.698816066972668e-06,3.580904218520801e-06,-0.20226369746283174,0.2594088801883269,8.526288687770599e-09,-8.864441333876787e-08,-7.078221306222282e-12,0.06485296780894627,0.0648528360454224,0.06485147287506894,0.06485160345888931
0.45000000000000023,2.4912312985489706e-05,1.95618527676481e-06,0.04050167225380886,0.0,0.0,0.0,-7.233273615573485e-06,-1.233334128927404e-06,0.0015492936901332433,4.0209126479057863e-07,-8.354471524266464e-06,1.286461078801672e-08,-3.7631269798641667e-07,5.368396662669438e-07,0.0,5.266397126078719e-06,3.6916275672467476e-06,-0.19327951397312032,0.2596514531318082,9.012087056422902e-09,-9.344988467091996e-08,-6.039322699746209e-12,0.06491365170360378,0.06491351255283373,0.0649120753655772,0.06491221350979351
0.46000000000000024,2.483824401948183e-05,1.943872093900574e-06,0.04050750118501214,0.0,0.0,0.0,-7.528462157723705e-06,-1.2244435842895288e-06,-0.0003835052163079439,6.232380209567782e-08,-4.726379157669307e-06,1.2001354496320752e-08,-3.73426874627659e-07,6.643748024859409e-07,0.0,6.517516812387081e-06,3.663317640097335e-06,-0.18460873197767005,0.25988556423950615,9.30794201347219e-09,-9.624731035158084e-08,-5.0010626190655704e-12,0.06497220323173386,0.06497205961587077,0.0649705793047744,0.06497072208712712
0.47000000000000025,2.47627216645978e-05,1.931787645298537e-06,0.040494435729820574,0.0,0.0,0.0,-7.5302581287851244e-06,-1.1881964996887947e-06,-0.0022295830394018436,-2.4082727831518376e-07,-1.4784618998461254e-06,1.1116696304326737e-08,-3.579700291096805e-07,6.724206864192242e-07,0.0,6.59644693377259e-06,3.5116859855659663e-06,-0.17624128067986633,0.26011148542193546,9.424615670706934e-09,-9.716955700974328e-08,-3.967095646194529e-12,0.06502869147595397,0.06502854615127546,0.06502705156560504,0.065027196229101
0.48000000000000026,2.4688490173358295e-05,1.9201871464754388e-06,0.04046332796886756,0.0,0.0,0.0,-7.2767334295015335e-06,-1.1282778887680966e-06,-0.003991964766496326,-5.057305909487446e-07,1.373412535281792e-06,1.0214204790292473e-08,-3.3160781960293247e-07,5.762352755673551e-07,0.0,5.652868053315754e-06,3.2530727103047677e-06,-0.16816746720755732,0.26032947838567483,9.375028672196028e-09,-9.637000397344207e-08,-2.9409740480448214e-12,0.06508318314228732,0.06508303866599584,0.06508155629563124,0.06508170028176043
0.49000000000000027,2.461790994878654e-05,1.9092886064851924e-06,0.040415000226966064,0.0,0.0,0.0,-6.806465069177663e-06,-1.0484324159848468e-06,-0.005673577856122752,-7.315253462805564e-07,3.821483157693618e-06,9.297407956416073e-09,-2.9603687010916187e-07,3.9131965600035063e-07,0.0,3.83884582536344e-06,2.9041216957708782e-06,-0.1603779006914915,0.2605397966833019,9.173857040587811e-09,-9.401799775747086e-08,-1.9261206252105133e-12,0.06513574303457895,0.06513560173780675,0.06513415546758204,0.06513429644333417
0.5000000000000002,2.455295604237021e-05,1.8992725732400312e-06,0.0403502460172257,0.0,0.0,0.0,-6.157835812522e-06,-9.523969200689707e-07,-0.007277257169260308,-9.180719029679614e-07,5.865498053847845e-06,8.369768699636658e-09,-2.5295384258229747e-07,1.3313302852561658e-07,0.0,1.3060350098362986e-06,2.481477195732338e-06,-0.1528634744175668,0.2607426861953209,8.83713340656941e-09,-9.029444788263869e-08,-9.25802825342721e-13,0.06518643413803064,0.06518629810498187,0.06518490903678002,0.06518504491552839
0.5100000000000002,2.449522332253575e-05,1.890282525873131e-06,0.0402698309534389,0.0,0.0,0.0,-5.368400425806358e-06,-8.438385936861816e-07,-0.008805747688847631,-1.0658941499701476e-06,7.51204059075877e-06,7.4346659174956445e-09,-2.040270409794437e-07,-1.8316620317874905e-07,0.0,-1.7968604531835284e-06,2.0015052720083427e-06,-0.14561535778600457,0.2609383853472886,8.381859033893585e-09,-8.538762683155927e-08,5.687915225188044e-14,0.0652353176381896,0.06523518869125211,0.06523387503071473,0.06523400398713214
0.5200000000000002,2.4445937629954754e-05,1.8824258544411804e-06,0.040174493635626175,0.0,0.0,0.0,-4.47432277414655e-06,-7.262994207073543e-07,-0.01026170716832513,-1.176115392725973e-06,8.773798155605787e-06,6.49538093128782e-09,-1.5087082889541008e-07,-5.429510348492169e-07,0.0,-5.326349651870818e-06,1.480042831463973e-06,-0.13862498846641733,0.261127125321638,7.825632193082042e-09,-7.948922763644106e-08,1.0190027234468274e-12,0.06528245294071897,0.06528233263129446,0.06528110963518312,0.06528123011444147
0.5300000000000002,2.440597219211838e-05,1.8757753620489904e-06,0.0400649465094438,0.0,0.0,0.0,-3.509887302654398e-06,-6.031473136355189e-07,-0.01164770871050823,-1.2503893858801236e-06,9.668791393512344e-06,5.55508863981307e-09,-9.502307007271092e-08,-9.323266434143594e-07,0.0,-9.146124371894867e-06,9.321763174132942e-07,-0.1318840647461544,0.2613091302642724,7.186297806859565e-09,-7.279072329165185e-08,1.9578303429819026e-12,0.06532789769234643,0.06532778729707117,0.06532666727663722,0.06532677799821757
0.5400000000000003,2.4375868542539006e-05,1.8703712208241854e-06,0.039941876700143986,0.0,0.0,0.0,-2.507086801622102e-06,-4.775342405872566e-07,-0.012966243278109373,-1.2908280983055075e-06,1.02195809419358e-05,4.616852633303456e-09,-3.7925731178356666e-08,-1.338300500399964e-06,0.0,-1.3128727908923646e-05,3.720514228596789e-07,-0.12538453806917016,0.261484617486005,6.481622469403338e-09,-6.548006300616574e-08,2.8708068733176643e-12,0.06537170780331102,0.06537160832527618,0.06537060070045755,0.06537070065696024
0.5500000000000003,2.4355861178626514e-05,1.866223311009812e-06,0.03980594682176452,0.0,0.0,0.0,-1.4952868385655307e-06,-3.523614859435585e-07,-0.014219722137238947,-1.2999277176707388e-06,1.0452467492056327e-05,3.683623407724845e-09,1.9091280195036505e-08,-1.7489215866904247e-06,0.0,-1.7156920765433066e-05,-1.8728545871330812e-07,-0.11911860576254152,0.2616537976589259,5.728998177606258e-09,-5.7738731395468065e-08,3.755557673890278e-12,0.0654139374715543,0.06541384964608396,0.06541296104494547,0.06541304949634215
0.5600000000000003,2.4345905195502113e-05,1.8633138716881103e-06,0.03965779576221133,0.0,0.0,0.0,-5.009658540513494e-07,-2.3025205321991405e-07,-0.015410479235224407,-1.2804943044003338e-06,1.0396699674093208e-05,2.7582387875319395e-09,7.482303145913267e-08,-2.153389043784058e-06,0.0,-2.1124746519521607e-05,-7.340139386140915e-07,-0.11307870394766227,0.2618168750077778,4.945177364360331e-09,-4.973918812411502e-08,4.609884976834657e-12,0.06545463920883118,0.06545456351333653,0.0654537979109006,0.06545387437470947
0.5700000000000003,2.434570614937702e-05,1.8616003921946749e-06,0.03949803944488417,0.0,0.0,0.0,4.524713236726359e-07,-1.1353009437729696e-07,-0.01654077351409246,-1.2355703919301236e-06,1.0083702802844819e-05,1.8434257002797198e-09,1.2819928113018394e-07,-2.542131104648187e-06,0.0,-2.4938306136598714e-05,-1.2576349478871047e-06,-0.10725750063305109,0.2619740474964265,4.146041100441969e-09,-4.164269743231783e-08,5.431759873914523e-12,0.06549386386884892,0.0654938005362479,0.06549315942671764,0.06549322366461204
0.5800000000000003,2.4354751432139793e-05,1.861018675010168e-06,0.039327271567482024,0.0,0.0,0.0,1.3448098780966518e-06,-4.207137906069661e-09,-0.01761279116106163,-1.1683637048625084e-06,9.546339967115504e-06,9.41802540808738e-10,1.782910928320434e-07,-2.9068555935697663e-06,0.0,-2.851625337291941e-05,-1.749035620682346e-06,-0.10164788898563996,0.26212550700951076,3.3464015598380056e-09,-3.359754936992855e-08,6.219316609961737e-12,0.0655316606774774,0.0655316097126529,0.06553109230900156,0.0655311443103789
0.5900000000000003,2.437234247694502e-05,1.8614860036975302e-06,0.03914606431861146,0.0,0.0,0.0,2.1590755893564163e-06,9.602521054247618e-08,-0.01862864779739273,-1.082179032044284e-06,8.818215337869e-06,5.588148255906805e-11,2.2431449041323104e-07,-3.240573670797496e-06,0.0,-3.1790027710523436e-05,-2.2005251509537967e-06,-0.09624298077734542,0.26227143952936244,2.559839265984936e-09,-2.5737667781488762e-08,6.970845741389419e-12,0.06556807726501983,0.0655680384637811,0.06556764191875755,0.06556768188180395
0.6000000000000003,2.4397627161276912e-05,1.8629043531498638e-06,0.03895496907280765,0.0,0.0,0.0,2.8815246396676517e-06,1.8579650588868432e-07,-0.019590390606940677,-9.80354150820885e-07,7.93302793958383e-06,-8.119297624382299e-10,2.6563133659443936e-07,-3.5375988136476728e-06,0.0,-3.470384436188367e-05,-2.60584341199145e-06,-0.09103610000368212,0.2624120253082839,1.7985749312591763e-09,-1.818159385699556e-08,7.684788315869372e-12,0.0656031597004775,0.065603132670493,0.06560285231326539,0.065602880624048
0.6100000000000003,2.4429631827491242e-05,1.8651635838877692e-06,0.038754517064564335,0.0,0.0,0.0,3.5015782882477792e-06,2.6405312113576623e-07,-0.020500000405746635,-8.662005545376411e-07,6.923982503781346e-06,-1.6593270800106234e-09,3.0174765033683267e-07,-3.7935232812546167e-06,0.0,-3.721446338910779e-05,-2.9601444498043285e-06,-0.08602077667113608,0.2625474390362713,1.0733751518705519e-09,-1.1031828646895752e-08,8.359731580051847e-12,0.06563695252769797,0.06563693671087842,0.06563676629379336,0.06563678350390156
0.6200000000000003,2.4467292399772683e-05,1.8681445672512282e-06,0.03854522004195577,0.0,0.0,0.0,4.011708526194142e-06,3.300488621971841e-07,-0.02135939365400252,-7.429495905538167e-07,5.8232624319854724e-06,-2.484110181964017e-09,3.32309604360448e-07,-4.005174504032683e-06,0.0,-3.929076188456062e-05,-3.2599572187759954e-06,-0.08119074074998518,0.2626778500042767,3.9349075669016885e-10,-4.374513232895664e-09,8.994405235309156e-12,0.06566949880325604,0.06566949349908588,0.0656694254493485,0.06566943225258626
0.6300000000000003,2.4509484139204297e-05,1.8717221939296408e-06,0.038327570900420244,0.0,0.0,0.0,4.4072811291271995e-06,3.83331119925182e-07,-0.022170424411709265,-6.137044731206795e-07,4.661568361955007e-06,-3.2841839838005695e-09,3.5709746420963076e-07,-4.170553970311201e-06,0.0,-4.091313444875288e-05,-3.503126123896478e-06,-0.07653991628924141,0.26280342226309533,-2.3337390206049573e-10,1.720578591025594e-09,9.587678282393934e-12,0.06570084013588343,0.06570084452522437,0.06570087019669102,0.06570086740529651
0.6400000000000003,2.4555049643775708e-05,1.8757682242268977e-06,0.038102044297261745,0.0,0.0,0.0,4.686362693282673e-06,4.2372316791000867e-07,-0.022934886239340903,-4.813984966464216e-07,3.4677243767197935e-06,-4.0575610735902e-09,3.7601774399700216e-07,-4.288761257361633e-06,0.0,-4.207274793471762e-05,-3.6887340686105916e-06,-0.07206241569036996,0.26292431477797135,-8.010627696991071e-10,7.199763387245337e-09,1.0138559486544685e-11,0.06573101672723626,0.06573102989615885,0.06573113981686943,0.0657311283377068
0.6500000000000004,2.4602824766301353e-05,1.8801539446333185e-06,0.03786909724741327,0.0,0.0,0.0,4.849498277626665e-06,4.5130323040219034e-07,-0.02365451404481297,-3.487596421011523e-07,2.268352538666764e-06,-4.8023651206372e-09,3.890938617952609e-07,-4.35990587548348e-06,0.0,-4.277067663849294e-05,-3.817010784211509e-06,-0.06775253413644264,0.2630406815790088,-1.3049434059761e-09,1.2024917474807283e-08,1.0646197043373825e-11,0.06576006741376925,0.06576008837700476,0.06576027248855203,0.06576025329968276
0.6600000000000004,2.465166218912565e-05,1.8847526015478603e-06,0.03762916970099224,0.0,0.0,0.0,4.899466191711407e-06,4.663809483972967e-07,-0.02433098587804063,-2.182816443860494e-07,1.0876151851170863e-06,-5.516835004030535e-09,3.9645557994478107e-07,-4.385009566413353e-06,0.0,-4.301694384651499e-05,-3.8892292392583025e-06,-0.06360474417338147,0.2631526719074806,-1.741858444010565e-09,1.617272484231759e-08,1.1109877788626667e-11,0.06578802970947174,0.06578805743311712,0.06578830531844539,0.06578827944644634
0.6700000000000004,2.4700452459021022e-05,1.8894415892458965e-06,0.03738268510316587,0.0,0.0,0.0,4.841016278730113e-06,4.694718644674467e-07,-0.024965924674356377,-9.220147286896922e-08,-5.297670109752029e-08,-6.199329397556842e-09,3.9832751273059236e-07,-4.3659016259929075e-06,0.0,-4.282949495099042e-05,-3.907592899887111e-06,-0.05961369043995929,0.2632604303581226,-2.1100559746347663e-09,1.9633736695103213e-08,1.1529030405440329e-11,0.06581493984921076,0.06581497327236292,0.06581527436909797,0.06581524286745093
0.6800000000000004,2.4748142347828777e-05,1.894104375313858e-06,0.03713005093683158,0.0,0.0,0.0,4.6805977586801304e-06,4.6127052937982245e-07,-0.025560899948041626,2.751692781465803e-08,-1.1346917244819132e-06,-6.848331537026282e-09,3.9501697642786603e-07,-4.305109711025266e-06,0.0,-4.223312626515786e-05,-3.875116538757366e-06,-0.055774184543237945,0.26336409701750224,-2.4091018351288746e-09,2.2411275946454088e-08,1.190322511489124e-11,0.0658408328324249,0.06584087088746551,0.06584121468439076,0.06584117861322107
0.6900000000000004,2.4793750463276627e-05,1.898632152676894e-06,0.03687165924860517,0.0,0.0,0.0,4.426082331281986e-06,4.426228070571258e-07,-0.026117429437209377,1.391928834514956e-07,-2.1416464471537877e-06,-7.462453895333133e-09,3.869014451376264e-07,-4.2057484470174035e-06,0.0,-4.125839226524073e-05,-3.7955031768001154e-06,-0.05208120007614157,0.2634638075985509,-2.639776778192469e-09,2.4520219689929694e-08,1.2232175476406581e-11,0.06586574246691398,0.0658657840982124,0.0658661603130135,0.06586612072041105
0.7000000000000004,2.483638008929135e-05,1.9029252129460672e-06,0.036607887158597176,0.0,0.0,0.0,4.086487806073128e-06,4.1449792022204517e-07,-0.026636980701256904,2.4143355090149846e-07,-3.060818147370454e-06,-8.040442515513349e-09,3.7441586068276933e-07,-4.071407982580968e-06,0.0,-3.9940512309119295e-05,-3.673019593297967e-06,-0.04852986777389093,0.26355969357134723,-2.803961528654664e-09,2.5985691762733806e-08,1.2515740236468449e-11,0.06588970141247615,0.06588974559332421,0.06589014433021909,0.06589010223532779
0.7100000000000004,2.4875229285410108e-05,1.9068940410362975e-06,0.03633909735444565,0.0,0.0,0.0,3.671707041570078e-06,3.7796073835409054e-07,-0.027120972672089346,3.3313319156839617e-07,-3.882006795584551e-06,-8.581180790221478e-09,3.580400266644128e-07,-3.90604444316207e-06,0.0,-3.831829598741991e-05,-3.5123726615778898e-06,-0.0451154708060479,0.26365188229023795,-2.9045127045004986e-09,2.6841696174138935e-08,1.2753921115517575e-11,0.06591274122415472,0.06591278697179234,0.06591319885813747,0.06591315523615342
0.7200000000000004,2.4909598320113023e-05,1.9104601357965647e-06,0.036065638570061835,0.0,0.0,0.0,3.1922464499463598e-06,3.3414476362554195e-07,-0.02757077716029567,4.134676123492772e-07,-4.5977515196513305e-06,-9.083692513571857e-09,3.382862961591921e-07,-3.713874026900388e-06,0.0,-3.643310420389281e-05,-3.318588565321675e-06,-0.04183344020095392,0.26374049711738445,-2.945132477006519e-09,2.712972042152086e-08,1.2946864970975548e-11,0.0659348923948711,0.06593493878350695,0.06593535508491569,0.06593531085409071
0.7300000000000004,2.493889455271862e-05,1.9135565657034474e-06,0.035787846049533396,0.0,0.0,0.0,2.658977771149183e-06,2.8422622050139554e-07,-0.02798772031743868,4.818842730947707e-07,-5.203207141841407e-06,-9.547144087679286e-09,3.1568774002798724e-07,-3.499272263983631e-06,0.0,-3.432786090967942e-05,-3.096896729674555e-06,-0.03867935039937956,0.2638256575428187,-2.930234674788514e-09,2.6897335623516292e-08,1.3094860282548915e-11,0.06595618439723704,0.06595623056900889,0.06595664328293394,0.06595659929363887
0.7400000000000004,2.4962634912693024e-05,1.9161282724637597e-06,0.03550604199661829,0.0,0.0,0.0,2.082906252921385e-06,2.2939960188663638e-07,-0.028373084055600486,5.38088591758872e-07,-5.695986556634705e-06,-9.970845813319189e-09,2.907869589531534e-07,-3.266679732797545e-06,0.0,-3.2046128178743916e-05,-2.8526200673304352e-06,-0.03564891493424194,0.2639074793010948,-2.864809963947419e-09,2.6196817967014156e-08,1.3198336657027728e-11,0.0659766457243589,0.06597669089821978,0.06597709282632708,0.06597704985218905
0.7500000000000004,2.4980446153731667e-05,1.9181321386294143e-06,0.03522053601025125,0.0,0.0,0.0,1.4749578021416318e-06,1.7085497022717376e-07,-0.028728107425304465,5.820269988673013e-07,-6.075974787690374e-06,-1.035425223769743e-08,2.641256776473216e-07,-3.0205152960868104e-06,0.0,-2.963125505461161e-05,-2.5910728977202252e-06,-0.03273798223328561,0.26398607448461886,-2.754292413009014e-09,2.5083813465158607e-08,1.3257859552035512e-11,0.0659963039294679,0.06599634740801899,0.06599673220801987,0.0659966909391121
0.7600000000000005,2.4992063082794953e-05,1.9195368380363725e-06,0.034931625506473524,0.0,0.0,0.0,8.45787108564262e-07,1.0975725689376173e-07,-0.02905398795291352,6.138673023232251e-07,-6.345120524457909e-06,-1.0696961578011735e-08,2.3623523467446293e-07,-2.765097692447732e-06,0.0,-2.712560836291225e-05,-2.3174676521564815e-06,-0.029942531541667372,0.26406155165374035,-2.6044296575923055e-09,2.3616065224844792e-08,1.3274129014708687e-11,0.06601518566423188,0.06601522683855791,0.06601558905646084,0.06601555009448971
0.7700000000000005,2.4997324981531724e-05,1.9203224900387544e-06,0.034639596127185784,0.0,0.0,0.0,2.0560819373550333e-07,4.7227748508425693e-08,-0.02935188293858347,6.339769225964184e-07,-6.507210803937051e-06,-1.099871427167035e-08,2.076280564551205e-07,-2.504576096574633e-06,0.0,-2.456989150739715e-05,-2.036831233824732e-06,-0.027258668961428978,0.2641340159436867,-2.4211585266529508e-09,2.1852219641094736e-08,1.3247972320242491e-11,0.06603331671562922,0.06603335506821965,0.0660336901522164,0.06603365400762141
0.7800000000000005,2.4996170449409018e-05,1.9204801401275416e-06,0.03434472213611334,0.0,0.0,0.0,-4.3595168596499447e-07,-1.5672104484853428e-08,-0.029622910715828944,6.428995478832974e-07,-6.567634282158653e-06,-1.1259390727574167e-08,1.7879017970839183e-07,-2.242870049243485e-06,0.0,-2.2002555183078588e-05,-1.7539316629393239e-06,-0.024682623604891096,0.2642035691684206,-2.2104878389391617e-09,1.985072506684459e-08,1.3180339306281334e-11,0.06605072204128659,0.06605075714715344,0.06605106144456206,0.06605102853541849
0.7900000000000005,2.498863090466611e-05,1.9200110906180618e-06,0.034047266802362336,0.0,0.0,0.0,-1.0699743460981773e-06,-7.795447294156373e-08,-0.029868151873737606,6.413307399605982e-07,-6.5331382445804e-06,-1.147900837303154e-08,1.501748631855374e-07,-1.983618957700316e-06,0.0,-1.9459301975040098e-05,-1.4732154078501219e-06,-0.022210743859047505,0.26427030992149986,-1.978389722960314e-09,1.7668833695048542e-08,1.3072297012218538e-11,0.06606742580320808,0.06606745732933116,0.06606772806818374,0.06606769872077688
0.8000000000000005,2.497482298124077e-05,1.918926105686316e-06,0.0337474827719355,0.0,0.0,0.0,-1.6883492135489368e-06,-1.3871649220082267e-07,-0.030088650442847198,6.300929950610806e-07,-6.411584146806559e-06,-1.1657718102329885e-08,1.2219730739024446e-07,-1.7301411802225264e-06,0.0,-1.6972684977982984e-05,-1.1987555854982983e-06,-0.01983949375809088,0.2643343336740172,-1.7307006544101284e-09,1.5361714645430186e-08,1.2925021761912144e-11,0.06608345139984402,0.0660834791030931,0.06608371436007941,0.06608368881100067
0.8100000000000005,2.4954940057504904e-05,1.917244515162528e-06,0.03344561242756566,0.0,0.0,0.0,-2.283848530527181e-06,-1.9714917267231536e-07,-0.030285415045677853,6.101107313060702e-07,-6.2117060683838895e-06,-1.1795800229462288e-08,9.523048036483001e-08,-1.4854025415413794e-06,0.0,-1.4571798932520933e-05,-9.342110123789825e-07,-0.017565449461251714,0.2643957328696963,-1.4730330472357567e-09,1.2981683573082583e-08,1.2739794042572277e-11,0.06609882149647146,0.06609884522016789,0.06609904387672716,0.0660990222763298
0.8200000000000005,2.4929243146432795e-05,1.9149932411882165e-06,0.033141888237215866,0.0,0.0,0.0,-2.8501800271284885e-06,-2.525439282315243e-07,-0.03045942001289104,5.823856361765145e-07,-5.942876014704549e-06,-1.189366004684822e-08,6.960202875504039e-08,-1.251993973557309e-06,0.0,-1.2282060880597202e-05,-6.827959020869462e-07,-0.015385295833183293,0.26445459701721885,-1.2106980540418007e-09,1.0577551625305921e-08,1.2517988248779772e-11,0.06611355805387817,0.06611357772316778,0.06611373941156555,0.06611372182860735
0.8300000000000005,2.4898051367133377e-05,1.912205771151295e-06,0.03283653309158484,0.0,0.0,0.0,-3.3820181881750846e-06,-3.0429680963177113e-07,-0.03061160646602465,5.479727651864278e-07,-5.614879526794739e-06,-1.1951823082134571e-08,4.559223641699899e-08,-1.0321178436367349e-06,0.0,-1.012507604607637e-05,-4.4725983925076013e-07,-0.013295823124179318,0.26451101277985645,-9.486399400779232e-10,8.194094274685878e-09,1.2261069670939845e-11,0.06612768235536146,0.06612769797157791,0.06612782301281094,0.06612780944010614
0.8400000000000005,2.4861732205018213e-05,1.908921099276718e-06,0.03252976063094762,0.0,0.0,0.0,-3.875015512568932e-06,-3.5191056234590603e-07,-0.03074288336773237,5.079577374604043e-07,-5.237704566246162e-06,-1.1970930135150869e-08,2.3432977956809874e-08,-8.275824204374692e-07,0.0,-8.118583544491573e-06,-2.298775137563049e-07,-0.011293923747563384,0.2645650640624789,-6.913822155841407e-10,5.871638400117604e-09,1.1970582851119841e-11,0.06614121503207146,0.06614122666626954,0.0661413160016194,0.06614130636251853
0.8500000000000005,2.4820691752735503e-05,1.9051826579147256e-06,0.03222177556165165,0.0,0.0,0.0,-4.32579538704464e-06,-3.949946557233553e-07,-0.030854128540434338,4.6343532635973925e-07,-4.82134614310533e-06,-1.1951732156679895e-08,3.3076018617625122e-09,-6.398038345484371e-07,0.0,-6.276475616920169e-06,-3.2447574263890246e-08,-0.00937658915164305,0.2646168320960096,-4.4298543177868507e-10,3.6457641015920655e-09,1.1648147538027688e-11,0.06615417608674343,0.0661541838725829,0.0661542389905824,0.06615423314610089
0.8600000000000005,2.477536510686665e-05,1.901037257982629e-06,0.03191277396257983,0.0,0.0,0.0,-4.731928371208176e-06,-4.3326345299433137e-07,-0.03094618965426493,4.1548969460276805e-07,-4.375628657465057e-06,-1.1895085020549169e-08,-1.4648332659632393e-08,-4.6981481821514897e-07,0.0,-4.608883366690611e-06,1.4370014339099378e-07,-0.007540906783675028,0.2646663955193973,-2.070164218230845e-10,1.5471160567711238e-09,1.1295449647891209e-11,0.06616658491587882,0.06616658904203435,0.06616661190253233,0.06616660965895181
0.8700000000000006,2.472620707673617e-05,1.8965340562275813e-06,0.03160294358188321,0.0,0.0,0.0,-5.091893818431308e-06,-4.6653270950060655e-07,-0.03101988518518218,3.65176474421083e-07,-3.910047438995491e-06,-1.1801944226094062e-08,-3.034554937171534e-08,-3.1827945455393757e-07,0.0,-3.122321449174128e-06,2.9768983933652747e-07,-0.005784057143342958,0.26471383045917096,1.347146570860279e-11,-3.986822202542357e-10,1.0914234946867577e-11,0.0661784603304459,0.0661784610327122,0.06617845398961997,0.06617845510639289
0.8800000000000006,2.4673683341991234e-05,1.891723565034484e-06,0.031292464124277594,0.0,0.0,0.0,-5.405028839601445e-06,-4.947145996580896e-07,-0.0310760053440834,3.135068450513704e-07,-3.433630500553392e-06,-1.1673359549282647e-08,-4.3738869692012564e-08,-1.8551313114025375e-07,0.0,-1.8198838164858893e-06,4.2907831167864326e-07,-0.004103310923301601,0.2647592106066446,2.1594768202728988e-10,-2.1710189900754865e-09,1.0506301196203611e-11,0.06618982057518068,0.06618981812843376,0.0661897838526165,0.06618978805041366
0.8900000000000006,2.4618262175304077e-05,1.886656718451527e-06,0.030981507529189732,0.0,0.0,0.0,-5.671466656544166e-06,-5.178114817406646e-07,-0.03111531297775055,2.6143371300032653e-07,-2.954821078455565e-06,-1.1510469656941852e-08,-5.482444294638538e-08,-7.150687465465932e-08,0.0,-7.01482440362208e-07,5.378277853040406e-07,-0.0024960262343952933,0.2648026072928364,3.9840410957427485e-10,-3.754198582403998e-09,1.0073492247610838e-11,0.06620068334657787,0.06620067805674158,0.06620061946038261,0.06620062642913432
0.9000000000000006,2.4560406826049044e-05,1.8813840059901565e-06,0.030670238240030873,0.0,0.0,0.0,-5.89206639230747e-06,-5.359086138425305e-07,-0.03113854444242868,2.0984005580097412e-07,-2.4813811185813657e-06,-1.1314496685231445e-08,-6.363648895012623e-08,2.4044758866798293e-08,0.0,2.3587908448329125e-07,6.242739566007383e-07,-0.0009596459132129309,0.26484408956116445,5.593457570754863e-10,-5.137268797423051e-09,9.617691859022964e-12,0.06621106580966589,0.0662110580058209,0.06621097816944199,0.06621098757623567
0.9100000000000006,2.4500568640483536e-05,1.875954683618291e-06,0.03035881346486744,0.0,0.0,0.0,-6.0683363099935945e-06,-5.491660346148195e-07,-0.03114641045082124,1.5952944789186535e-07,-2.0203154887008344e-06,-1.1086740777424291e-08,-7.024364998260056e-08,1.0171305112283578e-07,0.0,9.97805031515019e-07,6.890902063293115e-07,0.000508305090305361,0.2648837242379822,6.977734689260132e-10,-6.313781371540094e-09,9.140814118534793e-12,0.0662209846136655,0.0662209746404236,0.06622087674359105,0.06622088824030202
0.9200000000000006,2.4439180974157925e-05,1.8704160692439972e-06,0.03004738342875081,0.0,0.0,0.0,-6.20235244431008e-06,-5.57809818916924e-07,-0.031139596893265856,1.1121874840057538e-07,-1.5778163566956106e-06,-1.0828574571938529e-08,-7.474504784346183e-08,1.623025333119565e-07,0.0,1.5921878517902934e-06,7.332489193443605e-07,0.001910222247442639,0.26492157600101235,8.131595807705942e-10,-7.281495740545854e-09,8.644800686327578e-12,0.06623045590663244,0.06623044411688513,0.06623033137347364,0.06623034460402114
0.9300000000000006,2.437665393329353e-05,1.8648129279167661e-06,0.029736091617960664,0.0,0.0,0.0,-6.296674474568926e-06,-5.621229117366593e-07,-0.03111876563383534,6.55328953133696e-08,-1.1592268741041312e-06,-1.0541437635240131e-08,-7.726613876595712e-08,2.0681719282842527e-07,0.0,2.028876661646852e-06,7.579808212940394e-07,0.0032484239096400025,0.2649577074457389,9.054175485253422e-10,-8.042036340003034e-09,8.131612490022083e-12,0.0662394953491859,0.06623948209731954,0.06623935769604915,0.06623937230318429
0.9400000000000006,2.4313369963958424e-05,1.8591869499863338e-06,0.029425075016409077,0.0,0.0,0.0,-6.354260568695306e-06,-5.624357340113945e-07,-0.031084555282089428,2.3001719069347967e-08,-7.690230463200614e-07,-1.0226830830403634e-08,-7.795445469564306e-08,2.3642617828957427e-07,0.0,2.3193408090207236e-06,7.647332005642584e-07,0.004525153693920675,0.26499217914981427,9.748665395339431e-10,-8.60051364160829e-09,7.60322371802117e-12,0.06624811812742319,0.06624810376307842,0.06624797081388194,0.06624798644543071
0.9500000000000006,2.4249680291254076e-05,1.8535763235819405e-06,0.029114464334445263,0.0,0.0,0.0,-6.378382789140163e-06,-5.59116741743414e-07,-0.031037581941184084,-1.594133866582553e-08,-4.108124554222375e-07,-9.886310613992855e-09,-7.697531401045047e-08,2.524296513628215e-07,0.0,2.476334879869279e-06,7.551278304425192e-07,0.005742582796880197,0.26502504973553814,1.0221920476706484e-09,-8.965118770814564e-09,7.061614685271623e-12,0.06625633896511841,0.06625632382755482,0.06625618531418274,0.06625620162868216
0.9600000000000006,2.4185902195575754e-05,1.8480154010311526e-06,0.02880438423029398,0.0,0.0,0.0,-6.372544497631217e-06,-5.525631054569757e-07,-0.030978439933026514,-5.095873836545293e-08,-8.734832892262566e-08,-9.521483261013507e-09,-7.450757834625847e-08,2.5622537255126424e-07,0.0,2.5135709047279023e-06,7.309193435767956e-07,0.006902812239267003,0.26505637593046155,1.0484035048568262e-09,-9.146701129135918e-09,6.508768384920362e-12,0.06626417213529849,0.06626415654841118,0.0662640152875349,0.06626403195921698
0.9700000000000006,2.4122317099458535e-05,1.8425344572457845e-06,0.0284949535243538,0.0,0.0,0.0,-6.340401030511269e-06,-5.431916610227875e-07,-0.030907702501146685,-8.180674433714157e-08,1.9944268311167455e-07,-9.133999022942836e-09,-7.073952499684489e-08,2.4927654205499184e-07,0.0,2.44540287755947e-06,6.939547402190484e-07,0.008007875043132606,0.26508621262617077,1.0547898811470244e-09,-9.158337964520684e-09,5.946661470601384e-12,0.066271631471287,0.06627161573930551,0.06627147434624324,0.06627149106933501
0.9800000000000006,2.4059169426661253e-05,1.8371595366777387e-06,0.028186285406574765,0.0,0.0,0.0,-6.285684743913658e-06,-5.314302655927289e-07,-0.030825922491937652,-1.0833188543718818e-07,4.484207507235932e-07,-8.725546223782175e-09,-6.586489656711805e-08,2.3308134763776166e-07,0.0,2.286528020326442e-06,6.461346353234281e-07,0.00905973834347551,0.2651146129353021,1.0428742078175827e-09,-9.014904035742341e-09,5.377260181132072e-12,0.06627873037729795,0.06627871478118441,0.06627857564224805,0.06627859213457167
0.9900000000000007,2.3996666185027348e-05,1.8319123842003498e-06,0.02787848763712865,0.0,0.0,0.0,-6.212135351898339e-06,-5.177096742372473e-07,-0.030733633014900192,-1.3046615601851954e-07,6.591829069521615e-07,-8.297845307098384e-09,-6.007918135344352e-08,2.0914460059300466e-07,0.0,2.0517085318173757e-06,5.893767690772809e-07,0.010060305436259104,0.2651416282468389,1.0143678527210789e-09,-8.73264891218922e-09,4.802514289443503e-12,0.066285481838657,0.06628546663320727,0.0662853318845529,0.06628534789042173
1.0000000000000007,2.393497721631324e-05,1.8268104542077474e-06,0.02757166274057861,0.0,0.0,1.385561225711794e-47,-6.123436304319472e-06,-5.024560342603281e-07,-0.030631348082509932,-1.4822114475155577e-07,8.320046879718893e-07,-7.852642852448238e-09,-5.357616948767751e-08,1.789517698043133e-07,0.0,1.7555168617803135e-06,5.255822226741165e-07,0.011011417764633102,0.26516730827973983,9.711254207980403e-10,-8.328788550306298e-09,4.224349803259621e-12,0.06629189843172015,0.06629188384335824,0.06629175535612059,0.06629177064854086
1.0100000000000007,2.3874236049578066e-05,1.8218669913487574e-06,0.02726590819374905,0.0,0.0,4.669939453125944e-08,-6.023157777736495e-06,-4.860840754236148e-07,-0.03051956323030844,-1.6168128171489882e-07,9.677751513528e-07,-7.391705579559986e-09,-4.654482136849613e-08,1.439456538070151e-07,0.0,1.4121068638468182e-06,4.5660469762494704e-07,0.01197803690161503,0.2651934069964713,9.151009139219621e-10,-7.821116966102762e-09,3.644665828601838e-12,0.06629841879893274,0.06629840502417932,0.06629828439558075,0.06629829877777851
1.0200000000000007,2.38145412932923e-05,1.817091176169274e-06,0.026961319766383707,0.0,0.0,3.7219312500003807e-07,-5.914705987491986e-06,-4.6899094586566646e-07,-0.030398124350108465,-1.7099639336009012e-07,1.0679270075548144e-06,-6.9168143656527565e-09,-3.916642599741986e-08,1.0550557811827303e-07,0.0,1.0350097213402585e-06,3.842226390346889e-07,0.013021800816623061,0.26522158862220396,8.483061062516703e-10,-7.227644245399991e-09,3.0653280392273578e-12,0.066305459150524,0.06630544635510485,0.06630533490513396,0.06630534821144116
1.0300000000000007,2.375595849520809e-05,1.8124883279124037e-06,0.026657997851073895,0.0,0.0,1.2514294335938363e-06,-5.801280371711111e-06,-4.515509522238688e-07,-0.030266260991021404,-1.7637375104613996e-07,1.1343635279843942e-06,-6.429758300850012e-09,-3.1612168551541916e-08,6.492975702311498e-08,0.0,6.36960916396758e-07,3.1011537349062623e-07,0.014138161237433777,0.2652517303535855,7.727711749082517e-10,-6.5662625628885725e-09,2.4881631511066202e-12,0.06631298893882857,0.06631297725738823,0.06631287603061722,0.06631288812675148
1.0400000000000007,2.3698522388929347e-05,1.8080601551488452e-06,0.026356050317176548,0.0,0.0,2.955180000000155e-06,-5.685839068581373e-06,-4.3411125557504533e-07,-0.030123248249640723,-1.7806979154653895e-07,1.169383795995597e-06,-5.9323288041453325e-09,-2.404113177332325e-08,2.342099947427241e-08,0.0,2.2976000484261236e-07,2.3584350269630108e-07,0.015322730742371171,0.2652837137302296,6.905080038169067e-10,-5.854442578739983e-09,1.914953050901412e-12,0.06632097869854138,0.06632096823492077,0.06632087800699396,0.06632088878977346
1.0500000000000007,2.3642239452199962e-05,1.8038050458344877e-06,0.02605559206341706,0.0,0.0,5.750061035156493e-06,-5.571071062456866e-06,-4.1698828861424216e-07,-0.029968405154510398,-1.763816786166234e-07,1.1756077537669893e-06,-5.426313828308965e-09,-1.6598624385456323e-08,-1.792489600025467e-08,0.0,-1.758432297624983e-07,1.6283250522132655e-07,0.016571277645472907,0.2653174244966153,6.034770413068553e-10,-5.108965632525491e-09,1.347432237072649e-12,0.06632940000987751,0.06632939083790139,0.06632931212614407,0.0663293215226923
1.0600000000000007,2.358709070803346e-05,1.7997183890970605e-06,0.02575674458639166,0.0,0.0,9.898554375000354e-06,-5.459375432105694e-06,-4.004649903474501e-07,-0.02980109310174943,-1.7163886442484364e-07,1.1559023760575999e-06,-4.913492182699033e-09,-9.414881439481958e-09,-5.812787402742207e-08,0.0,-5.702344442090105e-07,9.235998692131802e-08,0.01787972103872086,0.26535275246822665,5.135578508925907e-10,-4.34569245509915e-09,7.872822573781832e-13,0.06633822546310174,0.0663382176278186,0.0663381507054047,0.06633815867190161
1.0700000000000007,2.3533034698950503e-05,1.7957929206671754e-06,0.025459635564465632,0.0,0.0,1.5659028574219234e-05,-5.352847426573669e-06,-3.8478883807646215e-07,-0.029620714340261846,-1.6419479663923715e-07,1.1133101636924705e-06,-4.395627993345138e-09,-2.60412810502172e-09,-9.632958794172305e-08,0.0,-9.449932577083032e-07,2.5546496710263075e-08,0.01924412598658569,0.26538959140180585,4.2252353014927773e-10,-3.5793689761758136e-09,2.3612532834754486e-13,0.0663474286244014,0.06634742214371653,0.06634736705682438,0.06634737357686353
1.0800000000000007,2.3480010567818653e-05,1.7920190841324083e-06,0.025164398456579095,0.0,0.0,2.3285760000000637e-05,-5.253271000076228e-06,-3.701706444916449e-07,-0.029426710505010348,-1.544189018272911e-07,1.0509809986531364e-06,-3.87446532192107e-09,3.736007106359381e-09,-1.3179674201047998e-07,0.0,-1.2929260391228088e-06,-3.665022971338553e-08,0.020660698868282798,0.2654278388695934,3.320190997977234e-10,-2.823469281951287e-09,-3.0447612014558124e-13,0.0663569840030724,0.06635697886971327,0.0663569354570973,0.06635694053971046
1.0900000000000007,2.342794118288319e-05,1.788385400568309e-06,0.02487117211548711,0.0,0.0,3.3028953925782064e-05,-5.162117358130854e-06,-3.567840772712028e-07,-0.029218561196880353,-1.4268896005594682e-07,9.72108248970718e-07,-3.3517229672641037e-09,9.524748503514856e-09,-1.639219868721322e-07,0.0,-1.608074691215617e-06,-9.343778281948073e-08,0.022125782863287383,0.265467396137437,2.435438989387468e-10,-2.0900750359870682e-09,-8.330259848397854e-13,0.06636686701998352,0.06636686320373551,0.06636683111815377,0.06636683479556417
1.1000000000000008,2.337673624938955e-05,1.784878839571737e-06,0.02458010041497533,0.0,0.0,4.5134765625001005e-05,-5.080549002846256e-06,-3.4476584975588073e-07,-0.02899578260770728,-1.2938396918805387e-07,8.798698566039837e-07,-2.8290894643507647e-09,1.469812168110975e-08,-1.9222257141030045e-07,0.0,-1.8857034255350475e-06,-1.4418857369168666e-07,0.023635853575796353,0.2655081680466515,1.5843795591444983e-10,-1.3897901967139742e-09,-1.3480970007440273e-12,0.0663770539772809,0.06637705142743248,0.06637703015838625,0.06637703248355187
1.1100000000000008,2.332629535557904e-05,1.7814851852736704e-06,0.024291331890606494,0.0,0.0,5.984532146484497e-05,-5.009428715650261e-06,-3.342165240488741e-07,-0.02875792618908412,-1.1487758075504172e-07,7.773749878122665e-07,-2.308218295087723e-09,1.9208620569832152e-08,-2.1633697504577414e-07,0.0,-2.1222657251990443e-06,-1.884365677900534e-07,0.025187514793959864,0.2655500628995189,7.787225954100182e-11,-7.316892734787323e-10,-1.84833353712854e-12,0.06638752202929,0.06638752067722749,0.0663875095744972,0.06638751061850419
1.1200000000000008,2.3276510906645466e-05,1.7781893915245784e-06,0.024005019393566644,0.0,0.0,7.739874000000147e-05,-4.949332880323994e-06,-3.252018622694612e-07,-0.028504577363609528,-9.953217258652574e-08,6.676166757242844e-07,-1.790723325881215e-09,2.3024621991414283e-08,-2.360197594309086e-07,0.0,-2.3153538400172136e-06,-2.2587154173577414e-07,0.026777494379836453,0.26559299234831607,2.8427158734088e-12,-1.2329701972205795e-10,-2.332456116480342e-12,0.06639824915457034,0.06639824891646494,0.06639824721395901,0.06639824706332179
1.1300000000000008,2.322727090633189e-05,1.7749759211097106e-06,0.02372131975719314,0.0,0.0,9.8029153066408e-05,-4.900568527340014e-06,-3.1775465763527307e-07,-0.02823535427727796,-8.36936069759492e-08,5.534307410806271e-07,-1.2781744789629352e-09,2.6129578562232036e-08,-2.5113488803825026e-07,0.0,-2.463633251655235e-06,-2.563311656954963e-07,0.02840264028615079,0.2656368712877677,-6.583235630743321e-11,4.2940297342965376e-10,-2.799260538036227e-12,0.06640921412907523,0.06640921490860903,0.0664092217480803,0.06640922050200314
1.1400000000000008,2.3178461552092828e-05,1.7718290645489118e-06,0.023440393475779395,0.0,0.0,0.00012196672687500202,-4.863193471351961e-06,-3.1187697449238263e-07,-0.027949906591753403,-6.768670727113277e-08,4.3746114150996954e-07,-7.720936491061152e-10,2.852102202912785e-08,-2.616477664709828e-07,0.0,-2.566764589080341e-06,-2.797912261057442e-07,0.030059916696055247,0.26568161775081955,-1.2751148725527238e-10,9.219335500287754e-10,-3.2476244143170314e-12,0.06642039650036842,0.06642039819144828,0.06642041264567669,0.06642041041332616
1.1500000000000008,2.3129969616025123e-05,1.7687332347511888e-06,0.02316240439526355,0.0,0.0,0.0001494376831054711,-4.837038916262202e-06,-3.0754272528063265e-07,-0.027647914315306384,-5.181147075012844e-08,3.221317737213834e-07,-2.7395086888767763e-10,3.020940970955989e-08,-2.6761625587921075e-07,0.0,-2.6253154701750577e-06,-2.963543092507825e-07,0.03174640028220953,0.2657271528076338,-1.817263292771678e-10,1.3512660869766993e-09,-3.67650532070508e-12,0.06643177656284681,0.06643177905226107,0.06643180014734552,0.06643179704518042
